state,city,lat,lng
AL,Acmar,33.584132,-86.51557
AL,Adamsville,33.588437,-86.959727
AL,Adger,33.434277,-87.167455
AL,Keystone,33.236868,-86.812861
AL,New Site,32.941445,-85.951086
AL,Alpine,33.331165,-86.208934
AL,Arab,34.328339,-86.489638
AL,Baileyton,34.268298,-86.621299
AL,Bessemer,33.409002,-86.947547
AL,Hueytown,33.414625,-86.999607
AL,Blountsville,34.092937,-86.568628
AL,Bremen,33.973664,-87.004281
AL,Brent,32.93567,-87.211387
AL,Brierfield,33.042747,-86.951672
AL,Calera,33.1098,-86.755987
AL,Centreville,32.950324,-87.11924
AL,Chelsea,33.371582,-86.614132
AL,Coosa Pines,33.266928,-86.337622
AL,Clanton,32.835532,-86.642472
AL,Cleveland,33.992106,-86.559355
AL,Columbiana,33.176964,-86.616145
AL,Crane Hill,34.082117,-87.048395
AL,Cropwell,33.506448,-86.280026
AL,Cullman,34.176146,-86.829777
AL,Dolomite,33.465424,-86.956435
AL,Dora,33.734947,-87.040148
AL,Empire,33.825589,-87.016139
AL,Fairfield,33.473494,-86.918262
AL,Coalburg,33.611283,-86.813614
AL,Gardendale,33.71891,-86.822481
AL,Goodwater,33.074642,-86.078149
AL,Alden,33.63356,-86.948221
AL,Hanceville,34.051569,-86.784844
AL,Harpersville,33.36746,-86.429441
AL,Hayden,33.885806,-86.81767
AL,Helena,33.316978,-86.813786
AL,Holly Pond,34.190085,-86.617441
AL,Jemison,32.980539,-86.718052
AL,Joppa,34.283739,-86.551939
AL,Kellyton,32.979068,-86.048397
AL,Kimberly,33.768355,-86.808417
AL,Leeds,33.528333,-86.574824
AL,Lincoln,33.605913,-86.111152
AL,Logan,34.184079,-87.038115
AL,Mc Calla,33.284546,-87.102379
AL,Maylene,33.231694,-86.872745
AL,Montevallo,33.124765,-86.862228
AL,Morris,33.739172,-86.772551
AL,Mount Olive,33.67678,-86.87171
AL,Sylvan Springs,33.540696,-87.043998
AL,Odenville,33.675611,-86.408952
AL,Oneonta,33.925858,-86.474118
AL,Indian Springs,33.31046,-86.806176
AL,Pell City,33.597889,-86.343151
AL,Dixiana,33.708131,-86.656542
AL,Pleasant Grove,33.488336,-86.976586
AL,Quinton,33.656065,-87.10066
AL,Ragland,33.736677,-86.1619
AL,Remlap,33.846204,-86.641662
AL,Riverside,33.608832,-86.198341
AL,Rockford,32.877957,-86.240006
AL,Shelby,33.078483,-86.553606
AL,Springville,33.738647,-86.439407
AL,Sterrett,33.446103,-86.491732
AL,Sumiton,33.768005,-87.044545
AL,Sylacauga,33.171675,-86.271257
AL,Talladega,33.435445,-86.113352
AL,Thorsby,32.923755,-86.746724
AL,Trafford,33.819038,-86.743414
AL,Trussville,33.633932,-86.598068
AL,Union Grove,34.409345,-86.462793
AL,Vandiver,33.480704,-86.501278
AL,Vincent,33.401049,-86.399425
AL,Vinemont,34.262121,-86.912512
AL,Warrior,33.852862,-86.819849
AL,Weogufka,33.02381,-86.304203
AL,West Blocton,33.142431,-87.13694
AL,Wilsonville,33.229255,-86.529894
AL,Woodstock,33.169808,-87.163469
AL,Birmingham,33.520994,-86.806626
AL,Homewood,33.469624,-86.806738
AL,Irondale,33.532797,-86.685697
AL,Crestline Height,33.508195,-86.742108
AL,Center Point,33.635447,-86.693197
AL,Vestavia Hills,33.41531,-86.790425
AL,Mountain Brook,33.488726,-86.736584
AL,Bluff Park,33.403675,-86.831257
AL,Midfield,33.462446,-86.914703
AL,Shoal Creek,33.401559,-86.705511
AL,Cahaba Heights,33.446053,-86.743676
AL,Hoover,33.371776,-86.776381
AL,Tuscaloosa,33.196891,-87.562666
AL,Holt,33.210914,-87.488079
AL,Stewart,32.872354,-87.708558
AL,Aliceville,33.122813,-88.166689
AL,Boligee,32.774646,-88.026652
AL,Brookwood,33.277523,-87.309025
AL,Buhl,33.249448,-87.718886
AL,Carrollton,33.248506,-88.132122
AL,Coker,33.252612,-87.636528
AL,Cottondale,33.176667,-87.387051
AL,Duncanville,33.082815,-87.494977
AL,Echola,33.316559,-87.807202
AL,Elrod,33.343678,-87.801429
AL,Emelle,32.754963,-88.305747
AL,Epes,32.763371,-88.161443
AL,Ethelsville,33.386816,-88.221987
AL,Eutaw,32.888871,-87.930297
AL,Fosters,33.135859,-87.735688
AL,Gainesville,32.908364,-88.271558
AL,Gordo,33.346917,-87.900504
AL,Knoxville,32.982423,-87.791855
AL,Coatopa,32.588509,-88.173592
AL,Cypress,32.978853,-87.615134
AL,Northport,33.283425,-87.591441
AL,Ralph,33.062868,-87.744984
AL,Reform,33.395945,-88.020277
AL,Vance,33.17498,-87.257362
AL,Jasper,33.871672,-87.249144
AL,Addison,34.205571,-87.194766
AL,Arley,34.063234,-87.182761
AL,Bankston,33.70083,-87.68965
AL,Bear Creek,34.213469,-87.686083
AL,Beaverton,33.942877,-88.01567
AL,Berry,33.694485,-87.622563
AL,Brilliant,34.037702,-87.756315
AL,Carbon Hill,33.909252,-87.540328
AL,Cordova,33.768033,-87.18406
AL,Detroit,34.010874,-88.16063
AL,Double Springs,34.138682,-87.397431
AL,Eldridge,33.931546,-87.619397
AL,Fayette,33.697397,-87.834647
AL,Guin,33.967624,-87.90238
AL,Hackleburg,34.267803,-87.860762
AL,Haleyville,34.231423,-87.593811
AL,Hamilton,34.153413,-88.008521
AL,Hodges,34.341664,-87.959023
AL,Houston,34.118042,-87.26183
AL,Kennedy,33.574964,-88.05172
AL,Lynn,34.052984,-87.539814
AL,Millport,33.54013,-88.200003
AL,Nauvoo,33.929859,-87.432449
AL,Oakman,33.700174,-87.368574
AL,Parrish,33.721307,-87.265773
AL,Phil Campbell,34.347018,-87.715431
AL,Red Bay,34.451259,-88.112914
AL,Spruce Pine,34.384796,-87.712149
AL,Sulligent,33.8549,-88.150774
AL,Townley,33.84702,-87.437248
AL,Vernon,33.761285,-88.097919
AL,Vina,34.37116,-88.077422
AL,Winfield,33.930256,-87.79716
AL,Decatur,34.589599,-86.98868
AL,Anderson,34.951777,-87.272327
AL,Athens,34.803604,-86.970733
AL,Cherokee,34.744188,-87.972445
AL,Courtland,34.671866,-87.314255
AL,Danville,34.452189,-87.053187
AL,Elkmont,34.915241,-86.910452
AL,Eva,34.347778,-86.704427
AL,Falkville,34.347653,-86.913086
AL,Florence,34.830547,-87.655985
AL,Hartselle,34.448206,-86.924235
AL,Hillsboro,34.64763,-87.180379
AL,Killen,34.901632,-87.508185
AL,Leighton,34.710982,-87.522133
AL,Lester,34.918364,-87.143396
AL,Lexington,34.955924,-87.393519
AL,Moulton,34.505836,-87.222385
AL,Mount Hope,34.462969,-87.451453
AL,Rogersville,34.849544,-87.323671
AL,Russellville,34.506568,-87.725726
AL,Sheffield,34.757829,-87.697057
AL,Muscle Shoals,34.756136,-87.630443
AL,Somerville,34.499548,-86.800931
AL,Tanner,34.713037,-86.989152
AL,Town Creek,34.649138,-87.426195
AL,Trinity,34.591771,-87.09127
AL,Tuscumbia,34.687432,-87.683259
AL,Waterloo,34.93568,-87.962412
AL,Ardmore,34.980447,-86.834612
AL,Bridgeport,34.944638,-85.727681
AL,Brownsboro,34.716733,-86.468703
AL,Dutton,34.604558,-85.906729
AL,Estillfork,34.913017,-86.171571
AL,Fackler,34.82589,-85.984648
AL,Grant,34.495902,-86.259041
AL,Gurley,34.713964,-86.394028
AL,Harvest,34.82732,-86.749929
AL,Hazel Green,34.949627,-86.593484
AL,Hollytree,34.798979,-86.233627
AL,Hollywood,34.730428,-85.953173
AL,Laceys Spring,34.499647,-86.612869
AL,Langston,34.497831,-86.10563
AL,Triana,34.713409,-86.750951
AL,Meridianville,34.861779,-86.578879
AL,New Hope,34.549445,-86.3961
AL,New Market,34.899991,-86.448742
AL,Big Cove,34.612859,-86.466577
AL,Paint Rock,34.667122,-86.332562
AL,Pisgah,34.688601,-85.803044
AL,Princeton,34.840217,-86.250068
AL,Hytop,34.67227,-86.051336
AL,Section,34.543275,-85.994002
AL,Stevenson,34.876885,-85.850803
AL,Toney,34.911644,-86.699951
AL,Trenton,34.740065,-86.291264
AL,Valhermoso Sprin,34.538145,-86.678
AL,Woodville,34.668927,-86.22961
AL,Huntsville,34.726866,-86.567318
AL,Southside,33.997248,-86.010279
AL,Hokes Bluff,33.997057,-85.928724
AL,Gadsden,34.021694,-86.049479
AL,Glencoe,33.956787,-85.927586
AL,Albertville,34.273859,-86.206447
AL,Snead,34.042916,-86.350879
AL,Ashville,33.837366,-86.255167
AL,Attalla,34.029597,-86.096717
AL,Boaz,34.173686,-86.148003
AL,Bryant,34.945026,-85.632445
AL,Cedar Bluff,34.241662,-85.602567
AL,Centre,34.111592,-85.609229
AL,Collinsville,34.267957,-85.861969
AL,Crossville,34.258784,-86.030575
AL,Dawson,34.356838,-85.929161
AL,Flat Rock,34.807598,-85.708372
AL,Fort Payne,34.436792,-85.712394
AL,Fyffe,34.437284,-85.928849
AL,Gallant,33.997586,-86.234606
AL,Gaylesville,34.357324,-85.558893
AL,Geraldine,34.343864,-86.040393
AL,Groveoak,34.435874,-86.040023
AL,Guntersville,34.32193,-86.305463
AL,Henagar,34.618604,-85.727381
AL,Higdon,34.873247,-85.622507
AL,Horton,34.190033,-86.317318
AL,Ider,34.735059,-85.641577
AL,Leesburg,34.191083,-85.77051
AL,Mentone,34.587236,-85.577728
AL,Rainsville,34.498884,-85.844605
AL,Steele,33.941679,-86.228929
AL,Sylvania,34.558962,-85.792128
AL,Valley Head,34.5697,-85.627208
AL,Autaugaville,32.462462,-86.714938
AL,Eufaula,31.786701,-85.239657
AL,Banks,31.836792,-85.799844
AL,Billingsley,32.610578,-86.716301
AL,Brantley,31.570963,-86.274343
AL,Brundidge,31.701324,-85.817668
AL,Cecil,32.300891,-86.011241
AL,Clayton,31.887413,-85.450932
AL,Clio,31.68521,-85.590419
AL,Deatsville,32.613405,-86.338211
AL,Eclectic,32.65419,-86.031614
AL,Elmore,32.545378,-86.316134
AL,Equality,32.813908,-86.105064
AL,Dozier,31.506614,-86.366315
AL,Fitzpatrick,32.151607,-85.888329
AL,Forest Home,31.85318,-86.786377
AL,Fort Davis,32.28945,-85.700688
AL,Fort Deposit,31.995979,-86.576142
AL,Georgiana,31.628662,-86.733965
AL,Glenwood,31.664143,-86.170972
AL,Goshen,31.82497,-86.104851
AL,Grady,32.019397,-86.129246
AL,Greenville,31.810036,-86.622919
AL,Gantt,31.416909,-86.419836
AL,Hardaway,32.312939,-85.883837
AL,Hayneville,32.195707,-86.654994
AL,Highland Home,31.928292,-86.297111
AL,Honoraville,31.878397,-86.398064
AL,Hope Hull,32.224256,-86.393189
AL,Lapine,31.985423,-86.278534
AL,Letohatchee,32.086199,-86.488013
AL,Louisville,31.794262,-85.558062
AL,Luverne,31.70739,-86.256601
AL,Marbury,32.639373,-86.510138
AL,Mathews,32.128288,-86.041262
AL,Midway,32.09552,-85.531523
AL,Millbrook,32.499485,-86.364125
AL,Perote,32.003459,-85.74773
AL,Pike Road,32.335705,-86.09589
AL,Prattville,32.478695,-86.42997
AL,Ramer,32.067745,-86.246329
AL,Rutledge,31.755867,-86.348464
AL,Shorter,32.383585,-85.91616
AL,Tallassee,32.550997,-85.89781
AL,Titus,32.690019,-86.239334
AL,Troy,31.794471,-85.965493
AL,Tuskegee,32.431623,-85.68606
AL,Tuskegee Institu,32.417699,-85.714848
AL,Union Springs,32.166252,-85.678746
AL,Verbena,32.759565,-86.543753
AL,Wetumpka,32.54509,-86.188039
AL,Montgomery,32.373037,-86.308129
AL,Maxwell A F B,32.388133,-86.355848
AL,Gunter Afs,32.406814,-86.247327
AL,Anniston,33.653896,-85.838152
AL,Oxford,33.596829,-85.83347
AL,Fort Mc Clellan,33.710168,-85.801467
AL,Alexandria,33.780785,-85.892447
AL,Ashland,33.247363,-85.828976
AL,Cragford,33.217148,-85.710797
AL,Daviston,33.033471,-85.753831
AL,Delta,33.457303,-85.679279
AL,Eastaboga,33.603132,-85.96075
AL,Fruithurst,33.771732,-85.43814
AL,Graham,33.462976,-85.334034
AL,Heflin,33.611515,-85.588471
AL,Jacksonville,33.830966,-85.77518
AL,Lineville,33.328613,-85.734609
AL,Millerville,33.158959,-85.969001
AL,Munford,33.540987,-85.936322
AL,Muscadine,33.752913,-85.378907
AL,Newell,33.440172,-85.505925
AL,Ohatchee,33.778779,-86.025357
AL,Piedmont,33.838946,-85.645997
AL,Ranburne,33.561627,-85.378604
AL,Rock Mills,33.156443,-85.357854
AL,Wadley,33.149192,-85.551344
AL,Weaver,33.756286,-85.810666
AL,Wedowee,33.301854,-85.473737
AL,Wellington,33.863843,-85.915325
AL,Woodland,33.355453,-85.353768
AL,Taylor,31.202888,-85.418036
AL,Napier Field,31.255239,-85.412462
AL,Abbeville,31.575479,-85.279044
AL,Ariton,31.582996,-85.707716
AL,Ashford,31.1888,-85.253488
AL,Black,31.01318,-85.745634
AL,Chancellor,31.173379,-85.910897
AL,Clopton,31.602843,-85.482308
AL,Coffee Springs,31.138758,-85.918224
AL,Columbia,31.335235,-85.145488
AL,Cottonwood,31.098934,-85.375665
AL,Daleville,31.281091,-85.730473
AL,Elba,31.41373,-86.077728
AL,Enterprise,31.340789,-85.842111
AL,Geneva,31.041445,-85.884748
AL,Gordon,31.10019,-85.123412
AL,Hartford,31.08598,-85.719204
AL,Headland,31.353406,-85.332277
AL,Jack,31.552392,-86.043083
AL,Malvern,31.157528,-85.522327
AL,Midland City,31.36716,-85.513033
AL,New Brockton,31.36898,-85.940386
AL,Newton,31.331064,-85.599229
AL,Newville,31.440295,-85.328741
AL,Ozark,31.439069,-85.643629
AL,Fort Rucker,31.348011,-85.721374
AL,Pansey,31.131778,-85.238549
AL,Shorterville,31.625627,-85.14584
AL,Skipperville,31.551588,-85.549578
AL,Slocomb,31.095558,-85.582954
AL,Webb,31.265618,-85.254385
AL,Evergreen,31.458009,-86.925771
AL,Allen,31.624266,-87.66746
AL,Andalusia,31.297142,-86.490468
AL,Beatrice,31.727324,-87.171912
AL,East Brewton,31.118926,-87.067325
AL,Castleberry,31.326113,-87.026754
AL,Coy,31.888851,-87.392558
AL,Dickinson,31.717167,-87.656929
AL,Flomaton,31.040233,-87.266365
AL,Florala,31.017194,-86.338528
AL,Franklin,31.723815,-87.441237
AL,Frisco City,31.423478,-87.381744
AL,Fulton,31.790947,-87.708065
AL,Grove Hill,31.675502,-87.763571
AL,Kinston,31.262118,-86.069532
AL,Lenox,31.327261,-87.19671
AL,Mc Kenzie,31.54495,-86.735615
AL,Monroeville,31.51533,-87.340993
AL,Opp,31.279861,-86.257105
AL,Peterman,31.589953,-87.259984
AL,Range,31.30169,-87.319739
AL,Red Level,31.439931,-86.61209
AL,Repton,31.425569,-87.172039
AL,Samson,31.104918,-86.067416
AL,Uriah,31.313467,-87.570518
AL,Vredenburgh,31.73443,-87.416184
AL,Whatley,31.639453,-87.656502
AL,Wing,31.148127,-86.56119
AL,Atmore,31.057245,-87.487347
AL,Axis,31.006817,-88.04274
AL,Bay Minette,30.86354,-87.76444
AL,Bayou La Batre,30.407983,-88.250697
AL,Bigbee,31.589072,-88.165294
AL,Bon Secour,30.328883,-87.721355
AL,Carlton,31.322449,-87.837793
AL,Chatom,31.487638,-88.269887
AL,Chunchula,30.991178,-88.131126
AL,Citronelle,31.042533,-88.254949
AL,Coden,30.418834,-88.168276
AL,Coffeeville,31.78428,-88.071542
AL,Creola,30.901267,-88.017414
AL,Daphne,30.61972,-87.889522
AL,Spanish Fort,30.695852,-87.88668
AL,Dauphin Island,30.252057,-88.109644
AL,Deer Park,31.184892,-88.32731
AL,Elberta,30.394239,-87.58896
AL,Fairhope,30.50116,-87.883546
AL,Foley,30.400664,-87.685737
AL,Frankville,31.64684,-88.133185
AL,Fruitdale,31.348843,-88.376597
AL,Gainestown,31.425822,-87.682176
AL,Grand Bay,30.498288,-88.32825
AL,Fort Morgan,30.268954,-87.712795
AL,Irvington,30.480241,-88.239563
AL,Jackson,31.513098,-87.867192
AL,Leroy,31.491021,-87.968672
AL,Lillian,30.39724,-87.474452
AL,Little River,31.22459,-87.754796
AL,Loxley,30.617964,-87.75624
AL,Mc Intosh,31.236108,-88.051102
AL,Magnolia Springs,30.394497,-87.785781
AL,Millry,31.626871,-88.355872
AL,Mount Vernon,31.097375,-88.035044
AL,Orange Beach,30.290596,-87.555888
AL,Perdido,30.98058,-87.628374
AL,Robertsdale,30.561608,-87.637268
AL,Saint Stephens,31.533028,-88.052094
AL,Salitpa,31.654667,-87.959618
AL,Saraland,30.833197,-88.093387
AL,Satsuma,30.851628,-88.053312
AL,Seminole,30.504806,-87.465938
AL,Semmes,30.754408,-88.266705
AL,Silverhill,30.522237,-87.745676
AL,Stockton,31.01293,-87.863323
AL,Summerdale,30.475225,-87.699183
AL,Theodore,30.544374,-88.180748
AL,Tibbie,31.373742,-88.266828
AL,Vinegar Bend,31.25841,-88.386466
AL,Wagarville,31.410205,-88.070519
AL,Walker Springs,31.626166,-87.835355
AL,Wilmer,30.813745,-88.333196
AL,Mobile,30.688828,-88.045308
AL,Prichard,30.737846,-88.083761
AL,Chickasaw,30.766821,-88.084973
AL,Eight Mile,30.795074,-88.182311
AL,Brookley Field,30.631199,-88.068871
AL,Selma,32.419719,-87.024527
AL,Alberta,32.144889,-87.342503
AL,Arlington,32.066784,-87.559691
AL,Camden,32.004732,-87.295049
AL,Campbell,31.963512,-88.006072
AL,Catherine,32.182,-87.483623
AL,Demopolis,32.490792,-87.839669
AL,Dixons Mills,32.067209,-87.745356
AL,Faunsdale,32.423259,-87.618079
AL,Forkland,32.644661,-87.881676
AL,Gallion,32.529771,-87.698542
AL,Greensboro,32.716721,-87.590494
AL,Linden,32.305343,-87.795358
AL,Jones,32.608515,-86.889266
AL,Maplesville,32.804507,-86.871704
AL,Lower Peach Tree,31.850365,-87.568224
AL,Burkville,32.300292,-86.609868
AL,Magnolia,32.141931,-87.699815
AL,Marion,32.646301,-87.331437
AL,Plantersville,32.617608,-86.947531
AL,Marion Junction,32.426589,-87.270181
AL,Boys Ranch,32.095387,-86.92497
AL,Morvin,31.967305,-87.972897
AL,Newbern,32.551465,-87.561472
AL,Orrville,32.294859,-87.221368
AL,Pine Apple,31.926522,-87.004667
AL,Pine Hill,31.973546,-87.577086
AL,Prairie,32.084762,-87.448723
AL,Safford,32.300242,-87.369345
AL,Sardis,32.284358,-86.991959
AL,Sawyerville,32.757796,-87.740201
AL,Sprott,32.654376,-87.141599
AL,Sweet Water,32.077272,-87.922755
AL,Thomaston,32.253776,-87.597438
AL,Thomasville,31.906728,-87.759842
AL,Benton,32.281924,-86.859867
AL,Uniontown,32.446966,-87.493398
AL,Stanton,32.709631,-86.886848
AL,Randolph,32.888834,-86.90701
AL,Lawley,32.864558,-86.956708
AL,Opelika,32.627771,-85.358629
AL,Auburn,32.602043,-85.489001
AL,Camp Hill,32.782749,-85.64738
AL,Cusseta,32.803194,-85.215791
AL,Dadeville,32.82239,-85.770395
AL,Valley,32.811349,-85.174911
AL,Five Points,33.042408,-85.324264
AL,Hatchechubbee,32.284531,-85.302882
AL,Hurtsboro,32.245429,-85.395903
AL,Jacksons Gap,32.879698,-85.848662
AL,Lafayette,32.925237,-85.442563
AL,Lanett,32.861609,-85.21608
AL,Notasulga,32.543727,-85.68707
AL,Phenix City,32.407816,-85.095082
AL,Pittsview,32.173346,-85.131248
AL,Salem,32.621157,-85.183966
AL,Seale,32.305339,-85.167733
AL,Smiths,32.520072,-85.100027
AL,Waverly,32.763167,-85.514372
AL,Butler,32.082906,-88.206391
AL,Cuba,32.410973,-88.361083
AL,Gilbertown,31.866602,-88.326514
AL,Jachin,32.244174,-88.233356
AL,Lisman,32.217722,-88.323419
AL,Needham,32.012165,-88.345798
AL,Pennington,32.226245,-88.0931
AL,Silas,31.766754,-88.309149
AL,Toxey,31.93153,-88.31794
AL,Ward,32.334063,-88.297114
AL,York,32.472765,-88.268304
AK,98791,51.938901,-176.310048
AK,Anchorage,61.211571,-149.876077
AK,Fort Richardson,61.275256,-149.675454
AK,Elmendorf Afb,61.251531,-149.812667
AK,Port Heiden,56.964333,-158.566367
AK,Akiachak,60.891854,-161.39233
AK,Akiak,60.890632,-161.199325
AK,Akutan,54.143012,-165.785368
AK,Alakanuk,62.746967,-164.60228
AK,Aleknagik,59.269688,-158.619882
AK,Nikolaevsk,59.788818,-151.732933
AK,Chuathbaluk,61.691648,-157.758502
AK,Anvik,62.830913,-160.130441
AK,Atmautluak,60.832389,-161.824053
AK,Chefornak,60.153746,-164.210294
AK,Chevak,61.583982,-164.776457
AK,Chignik,56.301639,-158.415696
AK,Chignik Lagoon,56.251277,-158.673528
AK,Chugiak,61.409802,-149.453736
AK,Clam Gulch,60.201603,-151.422628
AK,Clarks Point,58.84921,-158.451241
AK,Nelson Lagoon,55.610952,-161.942941
AK,Cooper Landing,60.476692,-149.823514
AK,Copper Center,61.91581,-144.97793
AK,Chenega Bay,60.102558,-147.943316
AK,Crooked Creek,61.818072,-158.002483
AK,Koliganek,59.059279,-158.973533
AK,Eagle River,61.311357,-149.508515
AK,Eek,60.215058,-162.032341
AK,Egegik,58.206174,-157.342202
AK,Ekwok,59.362792,-157.478211
AK,Emmonak,62.827404,-164.131298
AK,False Pass,54.841028,-163.436845
AK,Marshall,61.837087,-161.7394
AK,Slana,62.654744,-143.568393
AK,Glennallen,62.103895,-145.661684
AK,Goodnews Bay,59.085008,-161.587146
AK,Grayling,63.372013,-159.404907
AK,Saint George Isl,56.60324,-169.547257
AK,Holy Cross,62.192584,-159.825092
AK,Port Graham,59.665495,-151.462644
AK,Hooper Bay,61.537157,-165.891045
AK,Kokhanok,59.564836,-155.462556
AK,Kalskag,61.541006,-160.3261
AK,Kasilof,60.316365,-151.28958
AK,Kenai,60.614467,-151.254556
AK,King Cove,55.062848,-162.305561
AK,Igiugig,58.724264,-156.641603
AK,Kipnuk,59.923204,-164.101013
AK,Akhiok,57.781967,-152.500169
AK,Kotlik,63.029471,-163.554153
AK,Kwethluk,60.771814,-161.38849
AK,Kwigillingok,59.881022,-162.984938
AK,Levelock,59.371395,-154.976815
AK,Lower Kalskag,61.51377,-160.359966
AK,Mc Grath,62.967153,-155.585153
AK,Manokotak,59.009559,-158.989699
AK,Mekoryuk,60.365679,-166.283583
AK,Moose Pass,60.85852,-149.255911
AK,Mountain Village,62.158913,-163.883822
AK,Naknek,58.885699,-156.705405
AK,Napakiak,60.663758,-161.738144
AK,New Stuyahok,59.593533,-157.297205
AK,Nikolski,52.988337,-168.788427
AK,Ninilchik,60.010833,-151.639604
AK,Nondalton,60.030837,-154.731675
AK,Butte,61.613814,-149.065323
AK,Pedro Bay,59.92238,-153.821856
AK,Perryville,55.945289,-159.259333
AK,Pilot Point,57.595193,-157.449272
AK,Pilot Station,61.946159,-162.874716
AK,Platinum,58.63364,-162.043201
AK,Port Alsworth,60.636416,-154.433803
AK,Wasilla,61.592349,-149.395875
AK,Quinhagak,59.738057,-161.874938
AK,Red Devil,61.735389,-157.195969
AK,Russian Mission,61.591302,-161.558413
AK,Saint Marys,62.054106,-163.205263
AK,Saint Michael,63.47759,-162.109141
AK,Saint Paul Islan,57.178697,-170.293408
AK,Sand Point,55.319236,-160.491435
AK,Scammon Bay,61.845019,-165.581945
AK,Seward,60.132874,-149.39849
AK,Shageluk,62.661092,-159.52816
AK,Sleetmute,61.634555,-157.118284
AK,Soldotna,60.481778,-151.13582
AK,South Naknek,58.736221,-156.850289
AK,Stebbins,63.478468,-162.227355
AK,Sterling,60.520373,-150.849792
AK,Talkeetna,62.260516,-150.110097
AK,Tuluksak,61.108848,-160.938924
AK,Tununak,60.539322,-165.097464
AK,Tyonek,61.117929,-151.348495
AK,Trapper Creek,61.441361,-150.284455
AK,Unalakleet,63.883478,-160.788365
AK,Unalaska,53.887114,-166.519855
AK,Valdez,60.895044,-146.195628
AK,Willow,61.771511,-150.188891
AK,Yakutat,59.620211,-139.778858
AK,Nikolai,63.001603,-154.381247
AK,Dutch Harbor,53.362757,-167.510656
AK,Coldfoot,64.840238,-147.710431
AK,Eielson Afb,64.67352,-147.08051
AK,Fort Wainwright,64.828303,-147.655673
AK,Clear,64.418121,-149.139885
AK,North Pole,64.78049,-147.369353
AK,Fairbanks,64.85437,-147.846917
AK,Salcha,64.50905,-146.952974
AK,Allakaket,66.543197,-152.712155
AK,Anaktuvuk Pass,68.11878,-151.679005
AK,Arctic Village,68.077395,-145.423115
AK,Barrow,71.234637,-156.817409
AK,Beaver,66.33883,-147.279803
AK,Bettles Field,67.100495,-151.062414
AK,Buckland,65.981052,-161.131676
AK,Cantwell,63.395458,-148.89735
AK,Central,65.468058,-144.74886
AK,Circle,65.824542,-144.08262
AK,Prudhoe Bay,70.070057,-148.559636
AK,Deering,66.062265,-162.711951
AK,Dot Lake,64.005426,-145.613611
AK,Elim,64.621662,-162.260371
AK,Fort Yukon,66.520744,-145.306439
AK,Galena,64.760784,-156.797701
AK,Gambell,63.776555,-171.701685
AK,Healy,63.917123,-149.011128
AK,Anderson,64.300693,-149.1718
AK,Hughes,66.038246,-154.26443
AK,Huslia,65.689918,-156.291976
AK,Kaktovik,70.042889,-143.631329
AK,Kaltag,64.330452,-158.724251
AK,Kiana,67.18026,-158.152204
AK,Kivalina,67.665859,-163.733617
AK,Kobuk,66.912253,-157.066864
AK,Kotzebue,66.846459,-162.126493
AK,Koyuk,64.931668,-161.149957
AK,Denali National,63.516075,-149.539532
AK,Manley Hot Sprin,65.02058,-150.573267
AK,Lake Minchumina,63.903884,-152.430081
AK,Minto,65.058399,-149.691186
AK,Point Lay,69.705626,-162.906148
AK,Nenana,64.557656,-149.086744
AK,Noatak,66.97553,-160.509453
AK,Golovin,64.505775,-165.310667
AK,Noorvik,66.836353,-161.044132
AK,Nulato,64.778024,-157.991353
AK,Point Hope,68.312058,-166.72618
AK,Rampart,65.383627,-150.011201
AK,Ruby,64.720062,-155.503872
AK,Savoonga,63.679737,-170.470908
AK,Selawik,65.713537,-158.534287
AK,Shaktoolik,64.375498,-161.174589
AK,Shishmaref,66.230562,-166.137276
AK,Shungnak,66.958141,-157.613496
AK,Stevens Village,65.995894,-149.118286
AK,Tanana,65.156483,-152.103747
AK,Teller,65.240164,-166.3833
AK,Border,63.435022,-142.523046
AK,Venetie,67.010446,-146.413723
AK,Wainwright,70.620064,-160.012532
AK,Wales,65.688212,-168.520521
AK,White Mountain,64.702791,-163.42185
AK,Brevig Mission,65.334187,-166.478578
AK,Ambler,67.46951,-156.455652
AK,Chalkyitsik,66.719,-143.638121
AK,Nuiqsut,70.192737,-150.997119
AK,Juneau,58.362767,-134.529429
AK,Angoon,57.569832,-134.371052
AK,Douglas,58.275597,-134.395041
AK,Gustavus,58.42835,-135.761542
AK,Haines,59.251886,-135.542032
AK,Hoonah,58.032237,-135.558435
AK,Petersburg,56.827134,-133.160683
AK,Sitka,57.051436,-135.316569
AK,Skagway,59.468471,-135.301794
AK,Ketchikan,55.372028,-131.683175
AK,Thorne Bay,55.66086,-132.513815
AK,Craig,55.47317,-133.117081
AK,Hydaburg,55.137406,-132.633175
AK,Hyder,55.925867,-130.124915
AK,Klawock,55.552611,-133.055503
AK,Metlakatla,55.121491,-131.579001
AK,Point Baker,56.307858,-133.376372
AK,Wrangell,56.433524,-132.352918
AZ,Phoenix,33.451095,-112.077428
AZ,New River Stage,33.667157,-112.102723
AZ,Mesa,33.43174,-111.846931
AZ,Gold Canyon,33.360787,-111.51331
AZ,Apache Junction,33.415211,-111.571818
AZ,Eleven Mile Corn,32.892667,-111.756093
AZ,Chandler,33.330091,-111.863156
AZ,Coolidge,32.957399,-111.534378
AZ,Eloy,32.750929,-111.583275
AZ,Florence,32.996881,-111.361234
AZ,Gilbert,33.352746,-111.780876
AZ,Higley,33.302382,-111.696926
AZ,Kearny,33.059443,-110.91227
AZ,Mobile,32.987379,-112.075228
AZ,Williams Afb,33.310289,-111.668801
AZ,Arizona Boys Ran,33.238577,-111.643596
AZ,Sacaton,33.097699,-111.775162
AZ,Sun Lakes,33.223056,-111.866899
AZ,Scottsdale,33.521767,-111.904926
AZ,Paradise Valley,33.549439,-111.956546
AZ,Fort Mcdowell,33.611807,-111.68062
AZ,Fountain Hills,33.608489,-111.723685
AZ,Stanfield,32.882321,-111.965987
AZ,Superior,33.288716,-111.09846
AZ,Tempe,33.422675,-111.926144
AZ,Winkelman,33.00572,-110.772682
AZ,Glendale,33.531122,-112.176703
AZ,Luke Afb,33.534879,-112.326735
AZ,Why,32.373485,-112.858681
AZ,Arlington,33.313317,-112.789058
AZ,Avondale,33.432114,-112.343754
AZ,Rock Springs,34.073197,-112.130956
AZ,Buckeye,33.38896,-112.607728
AZ,Cibola,33.614886,-114.512204
AZ,Cave Creek,33.821896,-112.015106
AZ,Congress,34.176425,-112.76801
AZ,Dateland,32.867886,-113.463126
AZ,El Mirage,33.608153,-112.324147
AZ,Gila Bend,32.93059,-112.746832
AZ,Goodyear,33.436809,-112.383385
AZ,Laveen,33.343572,-112.171618
AZ,Litchfield Park,33.494127,-112.380497
AZ,Morristown,33.772993,-112.548331
AZ,Palo Verde,33.34848,-112.646662
AZ,Empire Landing,34.0254,-114.266342
AZ,Peoria,33.576135,-112.234424
AZ,Roll,32.936635,-113.564287
AZ,Salome,33.748141,-113.571459
AZ,Somerton,32.563398,-114.7127
AZ,Sun City,33.606104,-112.279701
AZ,Tolleson,33.434686,-112.277444
AZ,Tonopah,33.422797,-112.952785
AZ,Waddell,33.567285,-112.43869
AZ,Wellton,32.749251,-114.176616
AZ,Wittmann,33.726425,-112.446578
AZ,Yarnell,34.414076,-112.62166
AZ,Youngtown,33.590751,-112.301305
AZ,Yuma,32.701507,-114.642362
AZ,Yuma Proving Gro,32.671352,-114.548633
AZ,Surprise,33.630028,-112.33143
AZ,Sun City West,33.662576,-112.255434
AZ,Wickenburg,33.911282,-112.738973
AZ,Globe,33.402426,-110.789247
AZ,Bylas,33.126549,-110.11702
AZ,Clifton,33.132343,-109.246199
AZ,Franklin,32.793976,-109.129575
AZ,Eden,33.028629,-109.953682
AZ,Miami,33.431928,-110.881182
AZ,Morenci,33.043593,-109.311517
AZ,Payson,34.219779,-111.287774
AZ,Peridot,33.478874,-110.37252
AZ,Pima,32.909661,-109.856009
AZ,Strawberry,34.390915,-111.473483
AZ,Roosevelt,33.635753,-110.974884
AZ,Safford,32.829491,-109.626641
AZ,San Carlos,33.310643,-110.395323
AZ,Thatcher,32.819902,-109.730245
AZ,Benson,31.98826,-110.294113
AZ,Bisbee,31.408557,-109.911736
AZ,Cochise,32.097891,-109.92393
AZ,Douglas,31.35111,-109.544698
AZ,Elfrida,31.713891,-109.619277
AZ,Elgin,31.66002,-110.611403
AZ,Fort Huachuca,31.558735,-110.344131
AZ,Green Valley,31.854271,-111.000253
AZ,Hereford,31.403545,-110.204728
AZ,Huachuca City,31.663896,-110.333414
AZ,Mc Neal,31.502969,-109.630971
AZ,Mammoth,32.723875,-110.643961
AZ,Nogales,31.376969,-110.943508
AZ,Oracle,32.600506,-110.796126
AZ,Patagonia,31.535317,-110.696774
AZ,Pearce,31.966608,-109.795032
AZ,Sahuarita,31.945169,-111.000154
AZ,Saint David,31.897251,-110.215377
AZ,San Manuel,32.695831,-110.656788
AZ,Portal,32.208167,-109.367152
AZ,Pisinemo,32.031572,-111.922207
AZ,Sierra Vista,31.536467,-110.266565
AZ,Sonoita,31.866154,-110.724418
AZ,Tombstone,31.721598,-110.058449
AZ,Amado,31.594194,-111.039693
AZ,Vail,32.035926,-110.88375
AZ,Willcox,32.372977,-109.863111
AZ,Marana,32.404749,-111.273621
AZ,Tucson,32.213873,-110.969445
AZ,Casas Adobes,32.329175,-110.984593
AZ,Oro Valley,32.431679,-110.954463
AZ,Show Low,34.060117,-110.054633
AZ,Alpine,33.827878,-109.12829
AZ,Blue,33.651245,-109.06849
AZ,Concho,34.445787,-109.674096
AZ,Eagar,33.954571,-109.246933
AZ,Heber,34.4163,-110.568647
AZ,Lakeside,34.166224,-109.986878
AZ,Pinetop,34.117459,-109.919668
AZ,Saint Johns,34.501008,-109.379617
AZ,Snowflake,34.495859,-110.080742
AZ,Springerville,34.119333,-109.304066
AZ,Flagstaff,35.185911,-111.661979
AZ,Colorado City,36.976266,-112.952427
AZ,Fredonia,36.904397,-112.497864
AZ,Holbrook,34.908451,-110.143412
AZ,Hotevilla,36.211141,-110.566107
AZ,Kayenta,36.688327,-110.265229
AZ,Keams Canyon,35.808206,-110.284461
AZ,Leupp,35.336528,-110.992651
AZ,Marble Canyon,36.956943,-111.558166
AZ,Mormon Lake,34.916896,-111.454914
AZ,Kykotsmovi Villa,35.579084,-110.368805
AZ,Greenehaven,36.896625,-111.43847
AZ,Polacca,35.811812,-110.51114
AZ,Second Mesa,35.903782,-110.6472
AZ,Tonalea,35.934555,-110.882042
AZ,Tuba City,36.103729,-111.268566
AZ,Williams,35.543398,-112.17075
AZ,Winslow,35.16078,-110.511382
AZ,Kaibito,36.484798,-111.136973
AZ,Shonto,36.61594,-110.647743
AZ,Prescott,34.629909,-113.022459
AZ,Groom Creek,34.558577,-112.473459
AZ,Prescott Valley,34.601934,-112.326378
AZ,Ash Fork,35.214998,-112.502681
AZ,Bagdad,34.578484,-113.175535
AZ,Camp Verde,34.569733,-111.855131
AZ,Chino Valley,34.775739,-112.473099
AZ,Clarkdale,34.747793,-112.033417
AZ,Cornville,34.725593,-111.908556
AZ,Cottonwood,34.705547,-112.009099
AZ,Dewey,34.536753,-112.256665
AZ,Kirkland,34.454149,-112.896641
AZ,Mayer,34.365535,-112.129551
AZ,Paulden,35.03129,-112.544105
AZ,Rimrock,34.63799,-111.784222
AZ,Sedona,34.826645,-111.750627
AZ,Seligman,35.321246,-112.954805
AZ,Crown King,34.224062,-112.333971
AZ,Kingman,35.258379,-114.05689
AZ,Desert Hills,34.492879,-114.308083
AZ,Hualapai,35.540732,-113.295324
AZ,Bullhead City,35.014832,-114.588816
AZ,Littlefield,36.866524,-113.913693
AZ,Peach Springs,35.537795,-113.420199
AZ,Supai,36.224157,-112.693212
AZ,Topock,34.778388,-114.481666
AZ,Mohave Valley,34.892942,-114.595115
AZ,Dolan Springs,35.774789,-114.547771
AZ,Meadview,35.813733,-114.327696
AZ,Chambers,35.143044,-109.37389
AZ,Chinle,36.130367,-109.603693
AZ,Ganado,35.651844,-109.283168
AZ,Lukachukai,36.418111,-109.244614
AZ,Navajo,34.817202,-109.396217
AZ,Pinon,36.100243,-110.221077
AZ,Teec Nos Pos,36.779694,-109.359039
AZ,Dennehotso,36.777286,-109.861001
AZ,Many Farms,36.408259,-109.634021
AZ,Tsaile,36.307075,-109.217627
AR,North Cedar,34.215405,-91.995812
AR,Dollarway,34.257001,-92.089718
AR,Pine Bluff,34.189745,-92.044786
AR,Arkansas City,33.614328,-91.232529
AR,Banks,33.549665,-92.260386
AR,North,33.152369,-91.959152
AR,Dermott,33.524054,-91.439391
AR,Dumas,33.892102,-91.486056
AR,Eudora,33.12135,-91.271552
AR,Fountain Hill,33.342951,-91.835627
AR,Gould,34.034503,-91.576798
AR,Tamo,34.030484,-91.67082
AR,Hamburg,33.2058,-91.802265
AR,Ingalls,33.422207,-92.127714
AR,Jersey,33.388914,-92.296613
AR,Kingsland,33.86002,-92.301415
AR,Lake Village,33.327408,-91.282487
AR,Mc Gehee,33.62971,-91.392781
AR,Monticello,33.624951,-91.794845
AR,Montrose,33.307516,-91.522776
AR,New Edinburg,33.758846,-92.193909
AR,Parkdale,33.121267,-91.542793
AR,Pickens,33.807923,-91.39157
AR,Portland,33.231773,-91.513935
AR,Rison,33.945325,-92.118762
AR,Rohwer,33.616003,-91.205124
AR,Star City,33.940528,-91.865343
AR,Reed,33.67479,-91.520287
AR,Warren,33.613983,-92.077824
AR,Watson,33.890737,-91.281455
AR,Wilmar,33.621296,-91.925697
AR,Wilmot,33.057557,-91.572283
AR,Winchester,33.752039,-91.543059
AR,Yorktown,34.017166,-91.796472
AR,East Camden,33.575866,-92.833386
AR,Bearden,33.729797,-92.61802
AR,Bluff City,33.698191,-93.186811
AR,Carthage,34.063625,-92.62623
AR,Reader,33.700148,-93.018716
AR,El Dorado,33.20735,-92.662856
AR,Emerson,33.089054,-93.198699
AR,Fordyce,33.817648,-92.422475
AR,Gurdon,33.912493,-93.141691
AR,Hampton,33.537613,-92.52951
AR,Harrell,33.510865,-92.391243
AR,Huttig,33.045888,-92.194153
AR,Ivan,33.902984,-92.439406
AR,Junction City,33.043965,-92.684254
AR,Louann,33.411744,-92.782759
AR,Mc Neil,33.36222,-93.193006
AR,Magnolia,33.264678,-93.239153
AR,Mount Holly,33.308534,-92.944265
AR,Norphlet,33.309619,-92.657619
AR,Smackover,33.339831,-92.74425
AR,Manning,33.902989,-92.810984
AR,Stephens,33.455044,-93.021391
AR,Strong,33.119526,-92.362104
AR,Thornton,33.767694,-92.468299
AR,Tinsman,33.643436,-92.382192
AR,Village,33.281849,-93.046404
AR,Waldo,33.360017,-93.294915
AR,Perrytown,33.656645,-93.590305
AR,Ashdown,33.678711,-94.135102
AR,Blevins,33.875468,-93.536035
AR,Bradley,33.106963,-93.627496
AR,Buckner,33.375323,-93.446998
AR,Cale,33.616403,-93.26497
AR,Columbus,33.745108,-93.85588
AR,De Queen,34.044206,-94.338559
AR,Dierks,34.13232,-94.015243
AR,Doddridge,33.105448,-93.954307
AR,Emmet,33.692896,-93.423242
AR,Foreman,33.71759,-94.388108
AR,Fouke,33.302476,-93.900953
AR,Fulton,33.629876,-93.808562
AR,Garland City,33.335161,-93.731624
AR,Gillham,34.157003,-94.316497
AR,Horatio,33.939221,-94.295942
AR,Lewisville,33.373603,-93.595258
AR,Lockesburg,33.930553,-94.127588
AR,Mc Caskill,33.923042,-93.626605
AR,Mineral Springs,33.863852,-93.918828
AR,Nashville,33.957646,-93.870709
AR,Ogden,33.585706,-94.027826
AR,Ozan,33.902775,-93.771443
AR,Prescott,33.804029,-93.372544
AR,Rosston,33.561693,-93.303891
AR,Saratoga,33.759883,-93.876723
AR,Stamps,33.356877,-93.501307
AR,Taylor,33.107957,-93.446019
AR,Washington,33.754596,-93.673529
AR,Willisville,33.484731,-93.31212
AR,Wilton,33.734794,-94.135746
AR,Winthrop,33.858321,-94.395174
AR,Lake Catherine,34.501475,-93.026024
AR,Hot Springs Vill,34.65862,-93.006386
AR,Lake Hamilton,34.473304,-93.109177
AR,Amity,34.259362,-93.420551
AR,Antoine,34.028296,-93.437169
AR,Arkadelphia,34.11525,-93.068989
AR,Bismarck,34.311033,-93.187236
AR,Blakely,34.703957,-93.063509
AR,Bonnerdale,34.349751,-93.319415
AR,Caddo Gap,34.397579,-93.586376
AR,Cove,34.419159,-94.39234
AR,Delight,34.023772,-93.524666
AR,Donaldson,34.221221,-92.909384
AR,Friendship,34.241225,-92.980393
AR,Glenwood,34.319207,-93.555881
AR,Grannis,34.237021,-94.3255
AR,Hatfield,34.487703,-94.371397
AR,Jessieville,34.693729,-93.196318
AR,Kirby,34.255153,-93.616716
AR,Langley,34.314035,-93.850942
AR,Mena,34.581435,-94.220984
AR,Buckville,34.577182,-93.160041
AR,Mount Ida,34.561194,-93.574904
AR,Murfreesboro,34.101734,-93.710903
AR,Newhope,34.227347,-93.890487
AR,Norman,34.459633,-93.674304
AR,Oden,34.611292,-93.821103
AR,Okolona,34.055138,-93.289679
AR,Pearcy,34.435092,-93.242015
AR,Pencil Bluff,34.639946,-93.742947
AR,Royal,34.515049,-93.289734
AR,Sims,34.646181,-93.674071
AR,Story,34.668695,-93.537587
AR,Umpire,34.292129,-94.031377
AR,Vandervoort,34.379535,-94.369788
AR,Wickes,34.308806,-94.340257
AR,Adona,35.046956,-92.903325
AR,Alexander,34.631266,-92.472673
AR,Almyra,34.41459,-91.430992
AR,Altheimer,34.306168,-91.828916
AR,Amagon,35.561559,-91.079636
AR,Augusta,35.278806,-91.352653
AR,Austin,35.028369,-91.959398
AR,Bald Knob,35.311331,-91.550197
AR,Bauxite,34.545537,-92.360531
AR,Beebe,35.093743,-91.907449
AR,Bee Branch,35.423367,-92.408523
AR,Beedeville,35.420267,-91.106371
AR,Benton,34.580087,-92.595241
AR,Bigelow,34.984659,-92.630842
AR,Biscoe,34.833706,-91.490028
AR,Bradford,35.427655,-91.518973
AR,Brinkley,34.878124,-91.188596
AR,Bryant,34.606786,-92.492015
AR,Cabot,34.945724,-92.031771
AR,Carlisle,34.793291,-91.745929
AR,Casa,35.032168,-93.047005
AR,Casscoe,34.473625,-91.324798
AR,Center Ridge,35.398063,-92.558167
AR,Choctaw,35.523528,-92.426412
AR,Clarendon,34.660138,-91.256426
AR,Cleveland,35.358328,-92.712821
AR,Clinton,35.604537,-92.475825
AR,Conway,35.084199,-92.423574
AR,Cotton Plant,35.017827,-91.229043
AR,Crocketts Bluff,34.425272,-91.232079
AR,Twin Groves,35.291042,-92.432952
AR,Des Arc,34.97507,-91.511342
AR,De Valls Bluff,34.744704,-91.498218
AR,De Witt,34.285312,-91.333627
AR,Edgemont,35.623006,-92.199471
AR,El Paso,35.114176,-92.090076
AR,England,34.557458,-91.948422
AR,Enola,35.208705,-92.212328
AR,Ethel,34.243525,-91.139839
AR,Fox,35.768208,-92.304266
AR,Garner,35.130305,-91.742884
AR,Gillett,34.121838,-91.380048
AR,Grapevine,34.130893,-92.310944
AR,Greenbrier,35.229547,-92.357792
AR,Griffithville,35.114383,-91.624234
AR,Guy,35.318487,-92.331539
AR,Hattieville,35.290713,-92.778317
AR,Hazen,34.783833,-91.576699
AR,Hensley,34.591133,-92.214019
AR,Hickory Plains,34.978642,-91.750844
AR,Greers Ferry,35.549812,-92.182284
AR,Higginson,35.188254,-91.71828
AR,Holly Grove,34.599294,-91.184376
AR,Houston,35.036209,-92.691319
AR,Humnoke,34.541896,-91.756616
AR,Humphrey,34.403387,-91.67896
AR,Gravel Ridge,34.881985,-92.130435
AR,Jefferson,34.355285,-92.148574
AR,Jerusalem,35.37975,-92.813886
AR,Judsonia,35.324954,-91.649087
AR,Kensett,35.229939,-91.669672
AR,Keo,34.604072,-92.007844
AR,Leola,34.185605,-92.597865
AR,Lonoke,34.783162,-91.921367
AR,Lonsdale,34.556203,-92.834034
AR,Mc Crory,35.247292,-91.179327
AR,Mc Rae,35.11322,-91.821551
AR,Shannon Hills,34.621756,-92.384618
AR,Malvern,34.355715,-92.829162
AR,Jones Mills,34.453624,-92.861975
AR,Mayflower,34.966853,-92.400102
AR,Morrilton,35.169227,-92.735436
AR,Mount Vernon,35.260613,-92.137334
AR,Newport,35.598823,-91.257064
AR,Maumelle,34.849085,-92.405892
AR,North Little Roc,34.766974,-92.265376
AR,Sherwood,34.807629,-92.237359
AR,Camp Joseph T Ro,34.821598,-92.307875
AR,Pangburn,35.421583,-91.795971
AR,Paron,34.785289,-92.748176
AR,Perry,35.042732,-92.787976
AR,Perryville,34.970096,-92.847171
AR,Plumerville,35.157466,-92.620435
AR,Poyen,34.350828,-92.599037
AR,Prattsville,34.307865,-92.513105
AR,Prim,35.685733,-92.134596
AR,Quitman,35.404988,-92.133334
AR,Redfield,34.452647,-92.17579
AR,Reydell,34.143281,-91.550395
AR,Roe,34.628592,-91.377058
AR,Roland,34.88287,-92.519152
AR,Romance,35.215462,-92.06985
AR,Rose Bud,35.321447,-92.061988
AR,Saint Charles,34.335296,-91.16808
AR,Scotland,35.507956,-92.586652
AR,Scott,34.694215,-92.11566
AR,Georgetown,35.253512,-91.762931
AR,Sheridan,34.316527,-92.365713
AR,Sherrill,34.358148,-91.993285
AR,Shirley,35.573259,-92.29751
AR,Solgohachia,35.270056,-92.675387
AR,Springfield,35.274879,-92.54567
AR,Stuttgart,34.485358,-91.548742
AR,Thida,35.553556,-91.461823
AR,Tichnor,34.089311,-91.243684
AR,Traskwood,34.450791,-92.654734
AR,Tucker,34.441442,-91.916265
AR,Ulm,34.579938,-91.51343
AR,Vilonia,35.071895,-92.183235
AR,Wabbaseka,34.393552,-91.754948
AR,Ward,34.95316,-91.900383
AR,Wilburn,35.454547,-91.907248
AR,Wooster,35.197308,-92.450998
AR,Wright,34.437656,-92.06308
AR,Little Rock,34.748342,-92.281939
AR,Ferndale,34.781575,-92.585581
AR,West Memphis,35.148442,-90.17792
AR,Armorel,35.942843,-89.758118
AR,Aubrey,34.702727,-90.911331
AR,Bassett,35.513808,-90.192155
AR,Birdeye,35.409571,-90.67074
AR,Blytheville A F,35.934482,-89.922497
AR,Brickeys,34.854814,-90.537738
AR,Burdette,35.814769,-89.942312
AR,Cherry Valley,35.399122,-90.761329
AR,Colt,35.096062,-90.787204
AR,Crawfordsville,35.211873,-90.335107
AR,Crumrod,34.216167,-90.949535
AR,Driver,35.559714,-89.960526
AR,Dyess,35.595394,-90.215716
AR,Earle,35.27989,-90.450261
AR,Edmondson,35.022309,-90.328672
AR,Elaine,34.308668,-90.873485
AR,Forrest City,35.009129,-90.788572
AR,Frenchmans Bayou,35.478419,-90.055933
AR,Gilmore,35.386408,-90.264664
AR,Goodwin,34.959149,-90.983518
AR,Haynes,34.883752,-90.766621
AR,Helena,34.532491,-90.629784
AR,Heth,35.097335,-90.458554
AR,Hickory Ridge,35.399457,-90.982283
AR,Hughes,34.945416,-90.474142
AR,Joiner,35.505239,-90.14779
AR,Keiser,35.678626,-90.096171
AR,Lepanto,35.606909,-90.335883
AR,Lexa,34.672694,-90.78532
AR,Luxora,35.760786,-89.92204
AR,Marianna,34.775929,-90.77852
AR,Marion,35.2077,-90.198908
AR,Marked Tree,35.534933,-90.419387
AR,Marvell,34.548541,-90.941322
AR,Mellwood,34.220032,-91.008589
AR,Moro,34.802953,-91.006026
AR,Oneida,34.405267,-90.826045
AR,Osceola,35.701864,-89.979764
AR,Palestine,34.966346,-90.904929
AR,Parkin,35.258557,-90.556417
AR,Poplar Grove,34.539397,-90.881274
AR,Proctor,35.083396,-90.255026
AR,Snow Lake,34.066466,-91.007083
AR,Tomato,35.806666,-89.787092
AR,Turrell,35.296936,-90.262979
AR,Tyronza,35.486477,-90.351944
AR,West Helena,34.549635,-90.654531
AR,Wheatley,34.920703,-91.108645
AR,Widener,35.059167,-90.629313
AR,Wilson,35.566004,-90.042749
AR,Wynne,35.233036,-90.79303
AR,Fair Oaks,35.236817,-91.014304
AR,Jonesboro,35.833016,-90.696526
AR,Alicia,35.942327,-91.081003
AR,Bay,35.74559,-90.550658
AR,Beech Grove,36.183172,-90.618084
AR,Biggers,36.342978,-90.784467
AR,Black Oak,35.835851,-90.354227
AR,Black Rock,36.114874,-91.117629
AR,Bono,35.908592,-90.784753
AR,Brookland,35.91647,-90.576228
AR,Caraway,35.758951,-90.335797
AR,Cash,35.830145,-90.941007
AR,Corning,36.415532,-90.58702
AR,Datto,36.389685,-90.723117
AR,Delaplaine,36.199485,-90.734482
AR,Dell,35.850118,-90.035449
AR,Etowah,35.714707,-90.218172
AR,Fisher,35.513956,-90.955001
AR,Greenway,36.334766,-90.225257
AR,Harrisburg,35.572222,-90.703752
AR,Hoxie,36.032573,-90.971504
AR,Imboden,36.19763,-91.185442
AR,Knobel,36.317647,-90.599048
AR,Lafe,36.21547,-90.506973
AR,Lake City,35.81715,-90.442327
AR,Leachville,35.933216,-90.195488
AR,Lynn,36.016639,-91.254588
AR,Mc Dougal,36.379909,-90.394093
AR,Roseland,35.874885,-90.180252
AR,Marmaduke,36.195117,-90.38368
AR,Maynard,36.438563,-90.874921
AR,Minturn,35.976096,-91.033704
AR,Monette,35.900168,-90.343658
AR,O Kean,36.179672,-90.824069
AR,Paragould,36.060033,-90.525093
AR,Peach Orchard,36.283045,-90.670217
AR,Piggott,36.386993,-90.19261
AR,Pocahontas,36.282876,-90.996782
AR,Pollard,36.431725,-90.275123
AR,Portia,36.080699,-91.068004
AR,Powhatan,36.080044,-91.148214
AR,Ravenden,36.202863,-91.25934
AR,Ravenden Springs,36.310384,-91.209433
AR,Rector,36.267177,-90.270201
AR,Saint Francis,36.454771,-90.144991
AR,Sedgwick,35.985965,-90.880099
AR,Smithville,36.090815,-91.274456
AR,State University,35.914894,-90.454245
AR,Calamine,35.972622,-91.375398
AR,Success,36.453615,-90.728128
AR,Swifton,35.827366,-91.126358
AR,Payneway,35.668914,-90.518738
AR,Tuckerman,35.730678,-91.200347
AR,College City,36.077814,-90.952809
AR,Warm Springs,36.467531,-91.038707
AR,Weiner,35.629052,-90.928928
AR,Williford,36.245335,-91.379226
AR,Batesville,35.782614,-91.63519
AR,Horseshoe Bend,36.202502,-91.755334
AR,Agnos,36.219732,-91.610746
AR,Bexar,36.306103,-91.985998
AR,Boswell,36.01084,-92.044307
AR,Brockwell,36.135755,-91.951308
AR,Jordan,36.144771,-92.145494
AR,Camp,36.402531,-91.726166
AR,Cave City,35.951684,-91.544432
AR,Charlotte,35.833393,-91.396217
AR,Concord,35.641355,-91.833339
AR,Cord,35.81844,-91.337455
AR,Cushman,35.869663,-91.776455
AR,Desha,35.731524,-91.678287
AR,Dolph,36.222878,-92.11766
AR,Cherokee Village,36.30114,-91.528075
AR,Drasco,35.661606,-91.939818
AR,Elizabeth,36.323776,-92.093366
AR,Evening Shade,36.085532,-91.598014
AR,Fifty Six,35.991958,-92.218169
AR,Floral,35.602337,-91.734101
AR,Franklin,36.129093,-91.809592
AR,Gamaliel,36.461794,-92.228447
AR,Gepp,36.436443,-92.099507
AR,Glencoe,36.288962,-91.769483
AR,Guion,35.960135,-91.934287
AR,Hardy,36.322746,-91.411027
AR,Heber Springs,35.510278,-92.039211
AR,Henderson,36.356829,-92.269253
AR,Ida,35.594326,-91.930081
AR,Locust Grove,35.717705,-91.741443
AR,Magness,35.710062,-91.485041
AR,Mammoth Spring,36.407648,-91.575712
AR,Marcella,35.749654,-91.941891
AR,Zion,36.059958,-91.905196
AR,Moko,36.468902,-91.858663
AR,Hanover,35.865769,-92.114762
AR,Mount Pleasant,35.975909,-91.785013
AR,Newark,35.71183,-91.439395
AR,Oil Trough,35.613147,-91.470305
AR,Oxford,36.211408,-91.925849
AR,Pineville,36.167704,-92.107299
AR,Pleasant Grove,35.842349,-91.931905
AR,Pleasant Plains,35.589301,-91.632043
AR,Poughkeepsie,36.071526,-91.451575
AR,Rosie,35.663816,-91.534003
AR,Saffell,35.917957,-91.297753
AR,Sage,36.042476,-91.824569
AR,Salado,35.703493,-91.597924
AR,Byron,36.365401,-91.836321
AR,Sidney,35.991554,-91.634593
AR,Sturkie,36.463869,-91.989917
AR,Sulphur Rock,35.754466,-91.507333
AR,Tumbling Shoals,35.546985,-91.970359
AR,Viola,36.392429,-91.993198
AR,Violet Hill,36.162966,-91.847064
AR,Wideman,36.198739,-92.001796
AR,Wiseman,36.228022,-91.849499
AR,Harrison,36.241707,-93.106162
AR,Alco,35.894511,-92.380753
AR,Alpena,36.299768,-93.2792
AR,Bass,35.892225,-92.999832
AR,Berryville,36.351908,-93.558725
AR,Big Flat,36.006824,-92.391681
AR,Bruno,36.124617,-92.763651
AR,Bull Shoals,36.370958,-92.593765
AR,Clarkridge,36.443311,-92.35159
AR,Compton,36.097941,-93.309903
AR,Cotter,36.280378,-92.532787
AR,Deer,35.852982,-93.317388
AR,Dennard,35.725236,-92.557456
AR,Eureka Springs,36.417465,-93.737915
AR,Everton,36.153366,-92.914989
AR,Flippin,36.268219,-92.577995
AR,Gassville,36.317525,-92.473637
AR,Green Forest,36.322408,-93.405875
AR,Harriet,35.974187,-92.50055
AR,Hasty,36.015229,-93.045966
AR,Jasper,36.003798,-93.204771
AR,Lakeview,36.397308,-92.504416
AR,Lead Hill,36.430886,-92.930194
AR,Leslie,35.82716,-92.566293
AR,Dogpatch,36.095121,-93.144822
AR,Marshall,35.926697,-92.640203
AR,Midway,36.290454,-92.431398
AR,Mountain Home,36.331153,-92.375337
AR,Mount Judea,35.834674,-93.082391
AR,Timbo,35.896338,-92.252536
AR,Norfork,36.206571,-92.273011
AR,Oak Grove,36.461347,-93.432129
AR,Oakland,36.444227,-92.583187
AR,Omaha,36.46123,-93.188753
AR,Onia,35.940339,-92.345859
AR,Parthenon,35.940836,-93.267776
AR,Peel,36.444374,-92.776143
AR,Pindall,36.067479,-92.886409
AR,Ponca,36.066225,-93.401985
AR,Saint Joe,35.987707,-92.792828
AR,Tilly,35.6976,-92.844209
AR,Newnata,35.855318,-92.337929
AR,Valley Springs,36.146823,-92.979937
AR,Vendor,35.948062,-93.100815
AR,Western Grove,36.082994,-92.971649
AR,Witts Springs,35.785514,-92.815518
AR,Yellville,36.225322,-92.724472
AR,Fayetteville,36.052045,-94.153395
AR,Bentonville,36.357703,-94.22242
AR,Bella Vista,36.465086,-94.251969
AR,Wal-Mart Inc,36.326554,-94.181483
AR,Canehill,35.910992,-94.3862
AR,Cave Springs,36.266771,-94.207836
AR,Centerton,36.366993,-94.30891
AR,Combs,35.848297,-93.825218
AR,Decatur,36.334749,-94.453411
AR,Elkins,36.017719,-94.007323
AR,Evansville,35.819345,-94.478936
AR,Farmington,36.043635,-94.253871
AR,Garfield,36.428817,-93.951197
AR,Gateway,36.485751,-93.935016
AR,Gentry,36.26516,-94.475131
AR,Goshen,36.107523,-93.987262
AR,Gravette,36.415513,-94.477862
AR,Hindsville,36.142206,-93.863339
AR,Hiwasse,36.441589,-94.338993
AR,Huntsville,36.104348,-93.727893
AR,Kingston,36.04845,-93.504357
AR,Lincoln,35.956931,-94.42724
AR,Lowell,36.243318,-94.082725
AR,Maysville,36.401062,-94.581278
AR,Morrow,35.85373,-94.425793
AR,Pea Ridge,36.453884,-94.118026
AR,Pettigrew,35.834562,-93.618079
AR,Prairie Grove,35.991809,-94.316861
AR,Rogers,36.336316,-94.114784
AR,Saint Paul,35.849576,-93.734743
AR,Siloam Springs,36.179969,-94.528036
AR,Springdale,36.183521,-94.176216
AR,Bethel Heights,36.177918,-94.104682
AR,Sulphur Springs,36.479434,-94.452069
AR,Summers,36.013827,-94.500027
AR,Wesley,35.957264,-93.911478
AR,West Fork,35.908153,-94.230375
AR,Witter,35.935583,-93.621
AR,Russellville,35.284208,-93.131476
AR,Alix,35.430767,-93.726416
AR,Altus,35.404873,-93.811494
AR,Atkins,35.244948,-92.950696
AR,Belleville,35.103762,-93.451817
AR,Blue Mountain,35.130386,-93.716797
AR,Bluffton,34.901635,-93.591946
AR,Briggsville,34.916065,-93.515748
AR,Clarksville,35.490763,-93.491056
AR,Coal Hill,35.437117,-93.67203
AR,Danville,35.049541,-93.392933
AR,Dardanelle,35.195507,-93.187316
AR,Delaware,35.278005,-93.346152
AR,Dover,35.407356,-93.135526
AR,Gravelly,34.888123,-93.680249
AR,Hagarville,35.523291,-93.344256
AR,Hartman,35.443583,-93.614196
AR,Harvey,34.867912,-93.752538
AR,Waveland,35.111845,-93.576719
AR,Hector,35.40574,-92.965559
AR,Knoxville,35.374897,-93.361797
AR,Lamar,35.434868,-93.355157
AR,London,35.337017,-93.238907
AR,New Blaine,35.318912,-93.44457
AR,Oark,35.709454,-93.558531
AR,Ola,35.03091,-93.21356
AR,Ozone,35.657478,-93.43111
AR,Paris,35.294149,-93.726469
AR,Pelsor,35.691158,-93.016088
AR,Plainview,34.966793,-93.309897
AR,Pottsville,35.239785,-93.056386
AR,Rover,34.947522,-93.401728
AR,Scranton,35.330816,-93.539362
AR,Subiaco,35.31346,-93.63869
AR,Fort Smith,35.365272,-94.411035
AR,Fort Chaffee,35.297366,-94.340521
AR,Alma,35.500043,-94.207337
AR,Barling,35.332963,-94.308226
AR,Bates,34.909295,-94.393155
AR,Boles,34.765363,-94.062864
AR,Booneville,35.136385,-93.927433
AR,Branch,35.297055,-93.94537
AR,Cecil,35.434176,-93.942932
AR,Cedarville,35.590231,-94.344618
AR,Charleston,35.311502,-94.03368
AR,Chester,35.689776,-94.202026
AR,Greenwood,35.195476,-94.253027
AR,Hackett,35.194476,-94.398328
AR,Hartford,35.022233,-94.381876
AR,Huntington,35.096267,-94.331283
AR,Central City,35.337513,-94.165637
AR,Magazine,35.15873,-93.800336
AR,Mansfield,35.0432,-94.22036
AR,Mountainburg,35.570027,-94.109094
AR,Mulberry,35.517246,-93.988505
AR,Natural Dam,35.674259,-94.412377
AR,Ozark,35.524645,-93.837423
AR,Parks,34.800333,-93.950913
AR,Ratcliff,35.276032,-93.842149
AR,Rudy,35.539805,-94.237376
AR,Uniontown,35.574822,-94.43487
AR,Van Buren,35.453989,-94.327762
AR,Waldron,34.902642,-94.077243
AR,Winslow,35.831206,-94.118657
AR,Texarkana,33.432644,-94.011281
CA,Los Angeles,33.973093,-118.247896
CA,East Los Angeles,34.023638,-118.155319
CA,City Of Commerce,33.99471,-118.151352
CA,Cole,34.09743,-118.357979
CA,Vernon,33.997344,-118.235365
CA,Hazard,34.044017,-118.185432
CA,West Hollywood,34.090573,-118.378753
CA,Bell Gardens,33.969177,-118.17205
CA,Beverly Hills,34.090107,-118.406477
CA,Rancho Dominguez,33.890654,-118.239044
CA,East Rancho Domi,33.897324,-118.203724
CA,Rosewood,33.911535,-118.234034
CA,Culver City,33.994927,-118.399115
CA,Downey,33.958135,-118.117381
CA,El Segundo,33.924275,-118.411924
CA,Gardena,33.892463,-118.296122
CA,Holly Park,33.913214,-118.346978
CA,Hermosa Beach,33.864309,-118.395511
CA,Huntington Park,33.976879,-118.216053
CA,Lawndale,33.887908,-118.351014
CA,Lynwood,33.924076,-118.201289
CA,Malibu,34.040184,-118.735149
CA,Manhattan Beach,33.889594,-118.399562
CA,Maywood,33.988992,-118.187685
CA,Pacific Palisade,34.054097,-118.536874
CA,Palos Verdes Est,33.770094,-118.374763
CA,Redondo Beach,33.830656,-118.383221
CA,South Gate,33.94617,-118.201349
CA,Topanga,34.10759,-118.602268
CA,Venice,33.993772,-118.463463
CA,Marina Del Rey,33.977876,-118.452475
CA,Playa Del Rey,33.957745,-118.437314
CA,Inglewood,33.955048,-118.355575
CA,Lennox,33.938514,-118.355562
CA,Santa Monica,34.017628,-118.490708
CA,Torrance,33.826817,-118.31183
CA,Whittier,34.001119,-118.037139
CA,Los Nietos,33.977019,-118.065639
CA,Buena Park,33.840607,-118.011359
CA,Cerritos,33.849017,-118.040618
CA,Cypress,33.818613,-118.038696
CA,La Habra Heights,33.932173,-117.949703
CA,La Mirada,33.906681,-118.010081
CA,Montebello,34.013342,-118.112986
CA,Norwalk,33.90564,-118.081767
CA,Pico Rivera,33.98857,-118.088269
CA,Santa Fe Springs,33.946407,-118.083801
CA,Stanton,33.803029,-117.994709
CA,Avalon,33.331963,-118.343706
CA,Bellflower,33.886676,-118.126527
CA,Harbor City,33.797006,-118.299114
CA,Lakewood,33.851201,-118.145727
CA,Hawaiian Gardens,33.82958,-118.072964
CA,Rancho Palos Ver,33.793339,-118.31693
CA,Rossmoor,33.795291,-118.069891
CA,Paramount,33.896867,-118.163152
CA,San Pedro,33.733894,-118.291425
CA,Seal Beach,33.760971,-118.08428
CA,Wilmington,33.785475,-118.264451
CA,Carson,33.822968,-118.268352
CA,Long Beach,33.770553,-118.182025
CA,Signal Hill,33.782993,-118.155187
CA,Altadena,34.191187,-118.13919
CA,Arcadia,34.132389,-118.026374
CA,Bradbury,34.137445,-117.967005
CA,Flintridge,34.209282,-118.199008
CA,Monrovia,34.143959,-118.001376
CA,Montrose,34.211425,-118.230529
CA,Sierra Madre,34.165101,-118.051916
CA,South Pasadena,34.110939,-118.154696
CA,Shadow Hills,34.261025,-118.321359
CA,Tujunga,34.254389,-118.284856
CA,Pasadena,34.146762,-118.139119
CA,San Marino,34.120698,-118.111745
CA,Glendale,34.171606,-118.289892
CA,La Crescenta,34.231619,-118.245687
CA,Oak Park,34.157163,-118.75718
CA,Calabasas,34.141854,-118.664103
CA,Canoga Park,34.199257,-118.59828
CA,Winnetka,34.2092,-118.57492
CA,West Hills,34.196343,-118.638892
CA,Chatsworth,34.258253,-118.591357
CA,Encino,34.165479,-118.517542
CA,Newbury Park,34.177393,-118.935798
CA,Newhall,34.379519,-118.523005
CA,Northridge,34.236743,-118.546595
CA,Porter Ranch,34.274191,-118.541235
CA,California State,34.23805,-118.528634
CA,Arleta,34.258081,-118.420692
CA,Reseda,34.200663,-118.539071
CA,San Fernando,34.287509,-118.435242
CA,Sylmar,34.30538,-118.432181
CA,North Hills,34.236636,-118.47582
CA,Granada Hills,34.277068,-118.4992
CA,Mission Hills,34.261873,-118.458659
CA,Agua Dulce,34.459742,-118.488955
CA,Canyon Country,34.426203,-118.449011
CA,Sun Valley,34.220907,-118.369853
CA,Valencia,34.446608,-118.537437
CA,Tarzana,34.16708,-118.541354
CA,Thousand Oaks,34.209179,-118.873908
CA,Westlake Village,34.147233,-118.83832
CA,Woodland Hills,34.155652,-118.600019
CA,Castaic,34.482695,-118.62537
CA,Van Nuys,34.180152,-118.432375
CA,Panorama City,34.226158,-118.447009
CA,Sherman Oaks,34.151407,-118.460325
CA,Burbank,34.186238,-118.300898
CA,North Hollywood,34.16867,-118.371274
CA,Toluca Lake,34.151095,-118.367606
CA,Studio City,34.143025,-118.391311
CA,Valley Village,34.167217,-118.398905
CA,Alta Loma,34.133922,-117.599149
CA,Azusa,34.12476,-117.903083
CA,Irwindale,34.084245,-117.969539
CA,Chino Hills,33.979735,-117.730791
CA,Chino,34.012532,-117.684401
CA,Claremont,34.109167,-117.718293
CA,Corona,33.861839,-117.531916
CA,Covina,34.097162,-117.906544
CA,Rancho Cucamonga,34.107039,-117.59408
CA,El Monte,34.079142,-118.037108
CA,South El Monte,34.055676,-118.044381
CA,Etiwanda,34.119873,-117.519329
CA,Glendora,34.128663,-117.855155
CA,Industry,34.029428,-117.934098
CA,Hacienda Heights,33.997741,-117.965205
CA,Bassett,34.050963,-117.980026
CA,Rowland Heights,33.981777,-117.896946
CA,La Verne,34.115905,-117.77077
CA,Mira Loma,33.993845,-117.523574
CA,Monterey Park,34.053409,-118.127144
CA,Mt Baldy,34.218082,-117.580219
CA,Norco,33.927983,-117.557866
CA,Ontario,34.031647,-117.618662
CA,Montclair,34.073298,-117.698669
CA,Diamond Bar,34.006585,-117.809822
CA,Phillips Ranch,34.043268,-117.752086
CA,Pomona,34.081187,-117.736171
CA,Rosemead,34.065767,-118.08529
CA,San Dimas,34.102263,-117.81694
CA,San Gabriel,34.115486,-118.085658
CA,Temple City,34.101586,-118.053652
CA,Upland,34.114432,-117.658336
CA,West Covina,34.067336,-117.936643
CA,Alhambra,34.091436,-118.129288
CA,Alpine,32.828161,-116.754328
CA,Bonita,32.667143,-117.022065
CA,Boulevard,32.671934,-116.319982
CA,Campo,32.660491,-116.490459
CA,Chula Vista,32.637139,-117.06756
CA,Descanso,32.872971,-116.602732
CA,Dulzura,32.615172,-116.728523
CA,Imperial Beach,32.578289,-117.11478
CA,Jacumba,32.624934,-116.195184
CA,Jamul,32.716289,-116.832332
CA,La Mesa,32.760431,-117.011541
CA,Lemon Grove,32.73323,-117.032646
CA,National City,32.674916,-117.089747
CA,Pine Valley,32.835047,-116.512733
CA,Potrero,32.620477,-116.603748
CA,Spring Valley,32.724014,-116.997644
CA,Tecate,32.592205,-116.606397
CA,Bonsall,33.294033,-117.18969
CA,Borrego Springs,33.238649,-116.351394
CA,Cardiff By The S,33.025265,-117.274371
CA,Carlsbad,33.160241,-117.324998
CA,Del Mar,32.971474,-117.237314
CA,El Cajon,32.777726,-116.919055
CA,Encinitas,33.053469,-117.26891
CA,Escondido,33.110117,-117.069987
CA,Fallbrook,33.369015,-117.228952
CA,Julian,33.053355,-116.565812
CA,La Jolla,32.845488,-117.25208
CA,Lakeside,32.856181,-116.920089
CA,Oceanside,33.20723,-117.357294
CA,Marine Corp Base,33.327929,-117.409452
CA,Pala,33.377662,-117.071725
CA,Pauma Valley,33.306285,-116.959552
CA,Poway,32.975619,-117.040223
CA,Ramona,33.029349,-116.853548
CA,Ranchita,33.24055,-116.539121
CA,San Luis Rey,33.294367,-117.306403
CA,San Marcos,33.144386,-117.169716
CA,Santa Ysabel,33.147579,-116.69635
CA,Santee,32.848636,-116.986154
CA,Solana Beach,32.993739,-117.2598
CA,Valley Center,33.249046,-117.012232
CA,Vista,33.187296,-117.245854
CA,Warner Springs,33.303666,-116.721385
CA,San Diego,32.71852,-117.159316
CA,Coronado,32.68069,-117.169823
CA,San Ysidro,32.562567,-117.042976
CA,Chiriaco Summit,33.721899,-116.235729
CA,Indian Wells,33.716334,-116.338129
CA,Banning,33.92816,-116.889928
CA,Beaumont,33.950429,-116.970079
CA,Lost Lake,33.605715,-114.597131
CA,Brawley,32.979181,-115.529613
CA,Cabazon,33.908583,-116.773948
CA,Calexico,32.683227,-115.502815
CA,Calipatria,33.166956,-115.511402
CA,Cathedral City,33.809839,-116.466497
CA,Coachella,33.674965,-116.177231
CA,Eagle Mountain,33.604941,-115.052603
CA,Desert Hot Sprin,33.904973,-116.366222
CA,Big River,34.149142,-114.33928
CA,El Centro,32.789332,-115.566508
CA,Heber,32.698918,-115.428281
CA,Holtville,32.810387,-115.377456
CA,Imperial,32.846954,-115.572984
CA,Joshua Tree,34.150163,-116.303763
CA,La Quinta,33.668474,-116.308081
CA,Morongo Valley,34.060646,-116.565641
CA,Niland,33.378373,-115.696455
CA,Palm City,33.730842,-116.366442
CA,Palm Springs,33.841406,-116.53466
CA,Parker Dam,34.297977,-114.155969
CA,Rancho Mirage,33.764284,-116.422451
CA,Blythe,33.951256,-116.495855
CA,Salton City,33.543418,-116.11584
CA,Thousand Palms,33.808158,-116.371305
CA,Twentynine Palms,34.145509,-116.060133
CA,Vidal,34.156109,-114.565602
CA,Westmorland,33.041058,-115.630723
CA,White Water,33.927591,-116.693154
CA,Felicity,32.832922,-114.636634
CA,Yucca Valley,34.155936,-116.431313
CA,Adelanto,34.584128,-117.424189
CA,Amboy,34.599012,-115.774907
CA,Angelus Oaks,34.153149,-116.948482
CA,Apple Valley,34.529081,-117.2132
CA,Baker,35.360573,-116.063754
CA,Fort Irwin,35.40148,-116.644759
CA,Barstow,34.89145,-117.038702
CA,Big Bear City,34.242233,-116.920412
CA,Bloomington,34.066198,-117.399295
CA,Calimesa,33.994586,-117.04304
CA,Grand Terrace,34.057964,-117.318577
CA,Daggett,34.86677,-116.887555
CA,Death Valley,36.467165,-116.893682
CA,Essex,34.560626,-115.280344
CA,Fontana,34.079351,-117.455114
CA,Ludlow,34.901779,-116.386202
CA,Forest Falls,34.08805,-116.914147
CA,Helendale,34.749859,-117.33666
CA,Hesperia,34.422215,-117.302527
CA,East Highland,34.126969,-117.208717
CA,Hinkley,34.92788,-117.180867
CA,Kelso,34.9678,-115.577574
CA,Loma Linda,34.052833,-117.251286
CA,Lucerne Valley,34.44695,-116.918857
CA,Lytle Creek,34.255755,-117.518613
CA,Mentone,34.077372,-117.112581
CA,Needles,34.782369,-114.587134
CA,Nipton,35.46761,-115.481436
CA,Newberry Springs,34.885001,-116.746373
CA,Oro Grande,34.617832,-117.332733
CA,Phelan,34.444901,-117.519604
CA,Pinon Hills,34.442937,-117.640262
CA,Redlands,34.039659,-117.180352
CA,Rialto,34.113155,-117.377133
CA,Shoshone,35.899239,-116.264476
CA,Tecopa,35.897925,-115.829824
CA,Spring Valley La,34.503917,-117.319235
CA,George Afb,34.577325,-117.363516
CA,Wrightwood,34.362839,-117.6249
CA,Yucaipa,34.028197,-117.048925
CA,San Bernardino,34.110521,-117.289753
CA,Muscoy,34.144101,-117.310765
CA,Riverside,33.9924,-117.369421
CA,Rubidoux,33.997355,-117.444896
CA,Lake Elsinore,33.659816,-117.348535
CA,Aguanga,33.447306,-116.799693
CA,Anza,33.568812,-116.71355
CA,Hemet,33.741613,-116.972974
CA,Homeland,33.74528,-117.111845
CA,Idyllwild,33.730433,-116.710665
CA,Moreno Valley,33.915719,-117.235066
CA,Mountain Center,33.531667,-116.581954
CA,Murrieta,33.563071,-117.273838
CA,Lakeview,33.807712,-117.118704
CA,Mead Valley,33.797535,-117.280005
CA,Perris,33.810979,-117.217968
CA,San Jacinto,33.788281,-116.981911
CA,Gilman Hot Sprin,33.78604,-116.955201
CA,Menifee,33.664744,-117.1743
CA,Romoland,33.744518,-117.171899
CA,Sun City,33.704373,-117.196942
CA,Canyon Lake,33.688756,-117.252653
CA,Temecula,33.490269,-117.182437
CA,Wildomar,33.602115,-117.263953
CA,Winchester,33.624269,-117.088518
CA,Foothill Ranch,33.666822,-117.664995
CA,Brea,33.922897,-117.886742
CA,Capistrano Beach,33.459115,-117.662657
CA,Corona Del Mar,33.602066,-117.874331
CA,Costa Mesa,33.677711,-117.909623
CA,Monarch Bay,33.476964,-117.700483
CA,Lake Forest,33.640015,-117.68819
CA,Fullerton,33.880519,-117.89157
CA,Garden Grove,33.785826,-117.92906
CA,Huntington Beach,33.668448,-117.967771
CA,Laguna Niguel,33.542927,-117.772351
CA,Laguna Hills,33.60028,-117.70854
CA,Midway City,33.744794,-117.983539
CA,Aliso Viejo,33.572367,-117.708906
CA,Newport Beach,33.596382,-117.855317
CA,Orange,33.83096,-117.844903
CA,Villa Park,33.81036,-117.828421
CA,Placentia,33.880323,-117.859837
CA,San Clemente,33.430809,-117.610139
CA,Mission Viejo,33.511714,-117.657409
CA,Coto De Caza,33.634576,-117.577709
CA,Tustin,33.73713,-117.819193
CA,Westminster,33.752756,-117.991312
CA,Yorba Linda,33.888361,-117.799619
CA,Rancho Santa Mar,33.651822,-117.588388
CA,Santa Ana,33.75016,-117.857665
CA,Cowan Heights,33.74866,-117.768902
CA,Santa Ana Height,33.715938,-117.870346
CA,Fountain Valley,33.710762,-117.952318
CA,El Toro Marine C,33.681287,-117.715018
CA,Irvine,33.68764,-117.798928
CA,Anaheim,33.842679,-117.954035
CA,San Buenaventura,34.290531,-119.28882
CA,Camarillo,34.231328,-119.046361
CA,Carpinteria,34.403589,-119.518257
CA,Bardsdale,34.402557,-118.904071
CA,Moorpark,34.278421,-118.877139
CA,Oak View,34.402021,-119.298168
CA,Ojai,34.44512,-119.256477
CA,Oxnard,34.214142,-119.174952
CA,Port Hueneme,34.162572,-119.197317
CA,Point Mugu Nawc,34.123432,-119.09931
CA,Port Hueneme Cbc,34.16212,-119.206008
CA,Santa Paula,34.354718,-119.071328
CA,Santa Susana,34.279202,-118.699229
CA,Simi Valley,34.265589,-118.765349
CA,Somis,34.279753,-119.011537
CA,Summerland,34.424541,-119.596016
CA,Santa Barbara,34.419668,-119.70782
CA,Montecito,34.434258,-119.64255
CA,Goleta,34.429631,-119.861245
CA,Armona,36.309459,-119.705279
CA,Arvin,35.196629,-118.8336
CA,Avenal,35.987667,-120.122716
CA,Bodfish,35.587046,-118.484656
CA,Buttonwillow,35.403268,-119.465926
CA,California Hot S,35.892422,-118.646317
CA,Coalinga,36.162435,-120.348928
CA,Corcoran,36.086455,-119.560665
CA,Cuyama,34.933694,-119.661339
CA,Delano,35.771511,-119.24594
CA,Di Giorgio,35.247604,-118.846755
CA,Earlimart,35.854195,-119.253406
CA,Exeter,36.304055,-119.12928
CA,Farmersville,36.300169,-119.205357
CA,Fellows,35.202579,-119.564757
CA,Frazier Park,34.826463,-119.035488
CA,Glennville,35.737677,-118.71693
CA,Hanford,36.331419,-119.649094
CA,Huron,36.237144,-120.101964
CA,Ivanhoe,36.385622,-119.218884
CA,Kernville,35.755005,-118.404723
CA,Kettleman City,36.021501,-119.964361
CA,Mountain Mesa,35.617889,-118.441256
CA,Lamont,35.257059,-118.912419
CA,Laton,36.437834,-119.715565
CA,Gorman,34.828862,-118.879126
CA,Lemoncove,36.396084,-119.004986
CA,Lemoore Naval Ai,36.309535,-119.831017
CA,Lindsay,36.209551,-119.088427
CA,Lost Hills,35.613111,-119.721573
CA,Mc Farland,35.675779,-119.227156
CA,Mc Kittrick,35.303097,-119.636627
CA,Maricopa,35.038353,-119.407661
CA,New Cuyama,34.996709,-119.823806
CA,Onyx,35.713584,-118.190227
CA,Pixley,35.955286,-119.256427
CA,Porterville,36.068636,-119.031549
CA,Posey,35.813496,-118.664286
CA,Giant Forest,36.573878,-118.772271
CA,Shafter,35.496994,-119.280075
CA,Springville,36.136314,-118.796059
CA,Stratford,36.178976,-119.823564
CA,Strathmore,36.147237,-119.079163
CA,Taft,35.148164,-119.455674
CA,Terra Bella,35.95698,-119.031239
CA,Three Rivers,36.437686,-118.88754
CA,Tipton,36.054567,-119.30781
CA,Tulare,36.202155,-119.33802
CA,Tupman,35.288547,-119.341994
CA,Visalia,36.311379,-119.306471
CA,Pond,35.593375,-119.344728
CA,Weldon,35.639076,-118.285856
CA,Wofford Heights,35.724556,-118.455877
CA,Woodlake,36.431334,-119.091764
CA,Woody,35.70681,-118.843872
CA,Bakersfield,35.386611,-119.017063
CA,College Heights,35.387772,-118.982042
CA,Greenacres,35.382082,-119.15014
CA,San Luis Obispo,35.263453,-120.650933
CA,Los Osos,35.317203,-120.833261
CA,Halcyon,35.11449,-120.57289
CA,Atascadero,35.475439,-120.663838
CA,Bradley,35.809255,-120.972793
CA,Buellton,34.62093,-120.192233
CA,Cambria,35.556568,-121.084029
CA,Cayucos,35.444606,-120.890791
CA,Cholame,35.543847,-120.194827
CA,Creston,35.491543,-120.554238
CA,Grover Beach,35.120969,-120.617348
CA,Guadalupe,34.959989,-120.570329
CA,Lompoc,34.658349,-120.450605
CA,Morro Bay,35.37953,-120.844745
CA,Nipomo,35.029806,-120.489413
CA,Oceano,35.10187,-120.608044
CA,Adelaide,35.635248,-120.670676
CA,Shell Beach,35.149212,-120.651788
CA,San Ardo,35.985685,-120.861191
CA,Parkfield,35.753209,-120.696532
CA,San Simeon,35.666815,-121.144033
CA,California Valle,35.341254,-120.3202
CA,Santa Maria,34.954538,-120.43245
CA,Orcutt,34.879786,-120.429128
CA,Santa Ynez,34.623966,-120.071332
CA,Shandon,35.651273,-120.372047
CA,Ballard,34.609931,-120.129286
CA,Templeton,35.555082,-120.710737
CA,Mojave,35.047767,-118.173475
CA,California City,35.127783,-117.965142
CA,Acton,34.483541,-118.195929
CA,Benton,37.798099,-118.498526
CA,Big Pine,37.167857,-118.291597
CA,Toms Place,37.386301,-118.44156
CA,Boron,35.003748,-117.662921
CA,Bridgeport,38.256601,-119.208025
CA,Havilah,35.356798,-118.410264
CA,Cantil,35.282558,-117.993868
CA,North Edwards,34.930507,-117.915384
CA,Independence,36.839578,-118.204808
CA,Pearsonville,35.674498,-117.834844
CA,Johannesburg,35.370655,-117.637325
CA,June Lake,37.777324,-119.082492
CA,Keene,35.237502,-118.607563
CA,Elizabeth Lake,34.668297,-118.444719
CA,Lancaster,34.690888,-118.149129
CA,Hi Vista,34.684751,-118.063245
CA,Quartz Hill,34.673619,-118.213336
CA,Lee Vining,37.988988,-119.123413
CA,Juniper Hills,34.547372,-117.957405
CA,Crystalaire,34.495914,-117.798841
CA,Lone Pine,36.579781,-118.057824
CA,Crowley Lake,37.642361,-118.976383
CA,Lake Los Angeles,34.571483,-118.061306
CA,Leona Valley,34.601404,-118.181207
CA,Randsburg,35.352176,-117.726396
CA,China Lake Nwc,35.631376,-117.679733
CA,Willow Springs,34.863117,-118.19636
CA,Bear Valley Spri,35.129776,-118.522227
CA,Argus,35.760817,-117.382992
CA,Valyermo,34.339014,-117.8271
CA,Ahwahnee,37.407631,-119.723251
CA,Auberry,37.072635,-119.457202
CA,Bass Lake,37.324359,-119.556839
CA,Cantua Creek,36.492123,-120.335252
CA,Caruthers,36.535847,-119.844581
CA,Chowchilla,37.101371,-120.269077
CA,Clovis,36.823146,-119.689757
CA,Coarsegold,37.221378,-119.745545
CA,Cutler,36.524266,-119.287023
CA,Del Rey,36.654306,-119.59291
CA,Dinuba,36.534931,-119.39087
CA,Dos Palos,37.00253,-120.633348
CA,Dunlap,36.744635,-119.089931
CA,Firebaugh,36.8651,-120.470048
CA,Fish Camp,37.51692,-119.642005
CA,Fowler,36.628153,-119.671025
CA,Friant,37.002416,-119.696501
CA,Helm,36.499231,-120.093598
CA,Kerman,36.730576,-120.072444
CA,Kingsburg,36.508047,-119.543298
CA,Kings Canyon Nat,36.780601,-119.068201
CA,Los Banos,37.06266,-120.854387
CA,Madera,36.94026,-120.081966
CA,Mendota,36.742365,-120.409287
CA,Miramonte,36.68938,-119.047718
CA,North Fork,37.212531,-119.514324
CA,Oakhurst,37.347561,-119.644854
CA,O Neals,37.086874,-119.745369
CA,Orange Cove,36.624283,-119.313502
CA,Orosi,36.546368,-119.281522
CA,Parlier,36.610265,-119.537482
CA,Pinedale,36.841107,-119.800359
CA,Prather,36.993799,-119.526771
CA,Raisin,36.598928,-119.903158
CA,Raymond,37.27898,-119.876567
CA,Reedley,36.604406,-119.437785
CA,Riverdale,36.429525,-119.871953
CA,Sanger,36.7243,-119.547796
CA,San Joaquin,36.605869,-120.188934
CA,Selma,36.569524,-119.617026
CA,Shaver Lake,37.139695,-119.273031
CA,Tollhouse,36.99434,-119.391415
CA,Tranquillity,36.658376,-120.261655
CA,Wishon,37.281028,-119.557014
CA,Squaw Valley,36.707146,-119.181449
CA,Fresno,36.748727,-119.786705
CA,Fig Garden Villa,36.798781,-119.799745
CA,Easton,36.700589,-119.820408
CA,Calwa,36.675312,-119.742477
CA,Salinas,36.667693,-121.659589
CA,Prunedale,36.765385,-121.665588
CA,Big Sur,36.245798,-121.700897
CA,Carmel,36.545693,-121.894875
CA,Carmel Valley,36.478709,-121.724356
CA,Chualar,36.595042,-121.431964
CA,Gonzales,36.490038,-121.410347
CA,Greenfield,36.320178,-121.24507
CA,King City,36.202776,-121.127329
CA,Lockwood,35.989287,-121.205946
CA,Marina,36.684922,-121.793383
CA,Del Rey Oaks,36.595642,-121.8848
CA,Fort Ord,36.644627,-121.804999
CA,Pacific Grove,36.616737,-121.921957
CA,Pebble Beach,36.590735,-121.942044
CA,Sand City,36.609208,-121.835724
CA,Soledad,36.41964,-121.324286
CA,Belmont,37.517433,-122.292671
CA,Brisbane,37.681104,-122.400118
CA,Hillsborough,37.575884,-122.362952
CA,Colma,37.698187,-122.452679
CA,Daly City,37.678696,-122.478015
CA,Half Moon Bay,37.479057,-122.445929
CA,La Honda,37.272285,-122.293889
CA,Loma Mar,37.254437,-122.281996
CA,Los Altos,37.381432,-122.125754
CA,West Menlo Park,37.453401,-122.179136
CA,Atherton,37.456255,-122.200198
CA,Ladera,37.378859,-122.208131
CA,Millbrae,37.600382,-122.401985
CA,Moffett Field,37.41001,-122.051944
CA,Moss Beach,37.531039,-122.50683
CA,Mountain View,37.385532,-122.087983
CA,Pacifica,37.619559,-122.481607
CA,Pescadero,37.206518,-122.364876
CA,Redwood City,37.464661,-122.230406
CA,Woodside,37.452119,-122.255879
CA,San Bruno,37.624742,-122.429021
CA,San Carlos,37.496859,-122.267356
CA,San Gregorio,37.325513,-122.355552
CA,South San Franci,37.65382,-122.4347
CA,Sunnyvale,37.376407,-122.023771
CA,San Francisco,37.781334,-122.416728
CA,Palo Alto,37.444324,-122.149685
CA,East Palo Alto,37.455641,-122.131902
CA,Stanford,37.423573,-122.161867
CA,Russian River,37.572271,-122.320262
CA,San Mateo,37.550685,-122.32762
CA,Foster City,37.551614,-122.263577
CA,Coast Guard Isla,37.764783,-122.260516
CA,Alamo,37.853695,-122.022868
CA,Angwin,38.576906,-122.447732
CA,Antioch,37.993917,-121.808906
CA,Benicia,38.068459,-122.161392
CA,Birds Landing,38.150402,-121.844318
CA,Brentwood,37.932415,-121.689427
CA,Byron,37.902616,-121.602211
CA,Calistoga,38.582305,-122.581384
CA,Clayton,37.915442,-121.909967
CA,Concord,37.950434,-122.026296
CA,Pleasant Hill,37.954002,-122.07371
CA,Crockett,38.051865,-122.217659
CA,Danville,37.813985,-121.96598
CA,Diablo,37.83883,-121.960951
CA,El Cerrito,37.915633,-122.298521
CA,Fairfield,38.267084,-122.03565
CA,Travis Afb,38.274313,-121.946317
CA,Fremont,37.560493,-121.999935
CA,Hayward,37.674048,-122.089418
CA,Castro Valley,37.701527,-122.078183
CA,Hercules,38.006649,-122.263702
CA,Knightsen,37.9818,-121.672149
CA,Lafayette,37.896105,-122.11194
CA,Livermore,37.68299,-121.762983
CA,Pacheco,37.993246,-122.111693
CA,Moraga,37.843653,-122.124185
CA,Spanish Flat,38.328137,-122.305518
CA,Napa,38.290362,-122.284086
CA,Newark,37.536812,-122.031956
CA,Oakley,37.994034,-121.703623
CA,Orinda,37.878659,-122.172848
CA,Pinole,37.996903,-122.287477
CA,Shore Acres,38.016887,-121.908178
CA,Pleasanton,37.665804,-121.8755
CA,Pope Valley,38.678192,-122.472244
CA,Dublin,37.716597,-121.922589
CA,Port Costa,38.046013,-122.186649
CA,Rio Vista,38.163734,-121.701635
CA,Rodeo,38.03069,-122.258139
CA,Saint Helena,38.513776,-122.461921
CA,San Leandro,37.720467,-122.158705
CA,San Lorenzo,37.678671,-122.129547
CA,San Ramon,37.756188,-121.952224
CA,Suisun City,38.240834,-122.042003
CA,Sunol,37.609403,-121.898636
CA,Union City,37.589458,-122.049702
CA,American Canyon,38.148345,-122.249333
CA,Vallejo,38.105302,-122.247367
CA,Mare Island,38.094654,-122.27273
CA,Walnut Creek,37.875317,-122.070259
CA,Yountville,38.403813,-122.358506
CA,Oakland,37.780595,-122.216587
CA,Emeryville,37.836466,-122.280363
CA,Piedmont,37.828157,-122.22683
CA,Berkeley,37.865611,-122.285126
CA,Albany,37.890045,-122.295394
CA,Kensington,37.893118,-122.276517
CA,Richmond,37.940039,-122.36201
CA,El Sobrante,37.969287,-122.290092
CA,San Pablo,37.972374,-122.336929
CA,San Rafael,37.969144,-122.510502
CA,Civic Center,38.015044,-122.54521
CA,Kentfield,37.950599,-122.535501
CA,Belvedere,37.889885,-122.472627
CA,Bodega,38.339264,-122.951364
CA,Bodega Bay,38.330921,-123.037308
CA,Bolinas,37.907875,-122.694655
CA,Corte Madera,37.922256,-122.513202
CA,Rohnert Park,38.347027,-122.69408
CA,Fairfax,37.988289,-122.593711
CA,Cotati,38.325918,-122.704831
CA,Forest Knolls,38.012178,-122.69074
CA,Inverness,38.083514,-122.856774
CA,Lagunitas,38.013929,-122.701576
CA,Larkspur,37.936743,-122.536202
CA,Marshall,38.176221,-122.890011
CA,Mill Valley,37.895757,-122.533885
CA,Novato,38.1163,-122.571416
CA,Nicasio,38.054622,-122.696402
CA,Penngrove,38.315948,-122.671772
CA,Petaluma,38.240349,-122.677727
CA,Point Reyes Stat,38.064794,-122.81621
CA,San Anselmo,37.984579,-122.571062
CA,San Geronimo,38.017155,-122.67784
CA,Sausalito,37.860147,-122.494555
CA,Stinson Beach,37.901992,-122.639305
CA,Valley Ford,38.315729,-122.924457
CA,Woodacre,38.006933,-122.638247
CA,Alviso,37.427659,-121.968597
CA,Aptos,36.978477,-121.891979
CA,Aromas,36.878522,-121.639781
CA,Ben Lomond,37.086183,-122.083869
CA,Boulder Creek,37.149934,-122.133053
CA,Campbell,37.280007,-121.95539
CA,Capitola,36.977359,-121.952145
CA,Castroville,36.77142,-121.747368
CA,Coyote,37.216721,-121.746021
CA,Monte Vista,37.317363,-122.038604
CA,Davenport,37.06306,-122.225735
CA,Felton,37.063124,-122.062162
CA,Freedom,36.936483,-121.776761
CA,Gilroy,37.016005,-121.57825
CA,Hollister,36.848404,-121.387101
CA,Monte Sereno,37.211677,-121.978684
CA,Los Gatos,37.231571,-121.950088
CA,Milpitas,37.436491,-121.892885
CA,Morgan Hill,37.129171,-121.64636
CA,Paicines,36.49478,-121.032853
CA,San Juan Bautist,36.849856,-121.532721
CA,San Martin,37.091118,-121.599901
CA,Santa Clara,37.34732,-121.954079
CA,Scotts Valley,36.982946,-122.043612
CA,Santa Cruz,36.972101,-121.988055
CA,Saratoga,37.272871,-122.018238
CA,Soquel,37.003525,-121.950255
CA,La Selva Beach,36.920515,-121.763437
CA,San Jose,37.32966,-121.890299
CA,Mount Hamilton,37.316087,-121.639948
CA,Stockton,37.960632,-121.287087
CA,Univ Of The Paci,37.980364,-121.310336
CA,Acampo,38.200413,-121.218576
CA,Angels Camp,38.064011,-120.55437
CA,Bear Valley,38.24175,-120.342231
CA,Copperopolis,37.937246,-120.638374
CA,Farmington,37.944771,-120.852343
CA,French Camp,37.877982,-121.282704
CA,Glencoe,38.351557,-120.594546
CA,Linden,38.021869,-121.074442
CA,Lockeford,38.162436,-121.135611
CA,Lodi,38.123579,-121.263034
CA,Mokelumne Hill,38.328918,-120.567705
CA,Mountain Ranch,38.220363,-120.548137
CA,Murphys,38.126896,-120.461772
CA,San Andreas,38.186732,-120.668703
CA,Vallecito,38.101472,-120.467879
CA,Valley Springs,38.154355,-120.859742
CA,West Point,38.406201,-120.515862
CA,Wilseyville,38.384566,-120.442356
CA,Woodbridge,38.155124,-121.308632
CA,Atwater,37.353154,-120.600837
CA,Ballico,37.452455,-120.700152
CA,Catheys Valley,37.441409,-120.069017
CA,Ceres,37.588097,-120.949936
CA,Chinese Camp,37.856829,-120.406673
CA,Columbia,38.03975,-120.405552
CA,Coulterville,37.738642,-119.985813
CA,Crows Landing,37.438956,-121.019893
CA,Delhi,37.428629,-120.775489
CA,Denair,37.538419,-120.796474
CA,El Nido,37.13452,-120.483235
CA,Escalon,37.804428,-120.990044
CA,Groveland,37.840899,-120.191809
CA,Gustine,37.242456,-121.003965
CA,Hickman,37.619989,-120.71722
CA,Hilmar,37.408377,-120.856144
CA,Hornitos,37.492226,-120.226443
CA,Hughson,37.594364,-120.865281
CA,Jamestown,37.906544,-120.494567
CA,La Grange,37.678915,-120.358131
CA,Lathrop,37.820897,-121.282652
CA,Le Grand,37.234175,-120.251737
CA,Livingston,37.376168,-120.716156
CA,Cold Springs,38.20336,-120.001159
CA,Manteca,37.80875,-121.21856
CA,Mariposa,37.503918,-119.892496
CA,Red Top,37.300724,-120.461668
CA,Midpines,37.571009,-119.946548
CA,Mi Wuk Village,38.105576,-120.131762
CA,Merced,37.326964,-120.500897
CA,Modesto,37.674649,-121.011303
CA,Newman,37.317591,-121.025943
CA,Knights Ferry,37.775323,-120.849474
CA,Patterson,37.490592,-121.140732
CA,Pinecrest,38.341062,-119.865195
CA,Ripon,37.753286,-121.122909
CA,Riverbank,37.732809,-120.943019
CA,Salida,37.70713,-121.090484
CA,Snelling,37.514359,-120.481615
CA,Sonora,37.995692,-120.338498
CA,Soulsbyville,37.992794,-120.259892
CA,Stevinson,37.32575,-120.869856
CA,Tracy,37.742116,-121.419723
CA,Tuolumne,37.971339,-120.237496
CA,Turlock,37.503605,-120.850511
CA,Twain Harte,38.044722,-120.2155
CA,Waterford,37.650988,-120.753862
CA,Winton,37.39233,-120.6132
CA,Santa Rosa,38.443123,-122.751722
CA,Albion,39.215934,-123.721366
CA,95411,40.161039,-123.610187
CA,Annapolis,38.714485,-123.314214
CA,95414,40.290394,-123.649246
CA,Boonville,39.035007,-123.401954
CA,Branscomb,39.700531,-123.554982
CA,Caspar,39.365102,-123.798489
CA,Cazadero,38.566335,-123.182896
CA,Clearlake,38.957138,-122.636089
CA,Clearlake Oaks,39.034838,-122.66873
CA,Cloverdale,38.799396,-123.011725
CA,Comptche,39.249919,-123.585652
CA,Covelo,39.801864,-123.215015
CA,Dos Rios,39.709298,-123.298294
CA,Elk,39.160402,-123.723961
CA,Forestville,38.489442,-122.896683
CA,Fort Bragg,39.437452,-123.78835
CA,Fulton,38.494732,-122.77608
CA,95440,40.101665,-123.842409
CA,Geyserville,38.700398,-122.888921
CA,Glen Ellen,38.362538,-122.521002
CA,Glenhaven,38.99008,-122.522035
CA,Graton,38.434971,-122.866766
CA,Gualala,38.803619,-123.553975
CA,Guerneville,38.509573,-122.994416
CA,Healdsburg,38.61553,-122.856529
CA,Hopland,38.972056,-123.116956
CA,Jenner,38.474093,-123.135379
CA,Kelseyville,38.946164,-122.781707
CA,Kenwood,38.416794,-122.554679
CA,Lakeport,39.055147,-122.915082
CA,Laytonville,39.667811,-123.486862
CA,95455,39.851774,-123.618247
CA,Littleriver,39.271042,-123.753089
CA,Lower Lake,38.860682,-122.575426
CA,Lucerne,39.083393,-122.785125
CA,Manchester,38.992088,-123.670962
CA,Mendocino,39.323212,-123.78846
CA,Middletown,38.782504,-122.64352
CA,Russian River Md,38.462668,-123.00447
CA,Nice,39.122341,-122.842409
CA,Occidental,38.396911,-122.988194
CA,Philo,39.120005,-123.538218
CA,95467,39.962583,-123.814656
CA,Point Arena,38.915264,-123.660756
CA,Potter Valley,39.329639,-123.104181
CA,Redwood Valley,39.269446,-123.213289
CA,Freestone,38.391543,-122.838503
CA,Sonoma,38.295659,-122.472843
CA,Ukiah,39.151917,-123.200692
CA,Upper Lake,39.160829,-122.896114
CA,Westport,39.644059,-123.76426
CA,95489,40.038453,-124.032628
CA,Willits,39.411426,-123.350271
CA,Windsor,38.543182,-122.804375
CA,Witter Springs,39.182118,-122.97105
CA,Yorkville,38.908945,-123.233867
CA,95495,40.203331,-123.381217
CA,The Sea Ranch,38.725627,-123.467486
CA,Eureka,40.776237,-124.155892
CA,Mc Kinleyville,40.904901,-124.081069
CA,Bayside,40.822381,-124.027305
CA,Blue Lake,40.928701,-123.896696
CA,Ruth,40.468566,-123.549351
CA,Burnt Ranch,40.772238,-123.461248
CA,Carlotta,40.507027,-123.974287
CA,Crescent City,41.785402,-124.178448
CA,Ferndale,40.574488,-124.252268
CA,Fortuna,40.584931,-124.140654
CA,Gasquet,41.862768,-123.912467
CA,Hoopa,41.105937,-123.692754
CA,Hydesville,40.549576,-124.084489
CA,Klamath,41.542075,-124.033907
CA,Kneeland,40.71262,-123.946421
CA,Korbel,40.824369,-123.859413
CA,Loleta,40.6531,-124.228826
CA,Mad River,40.352352,-123.413994
CA,Myers Flat,40.194758,-123.822713
CA,Orick,41.30724,-124.050319
CA,Orleans,41.318092,-123.529564
CA,Petrolia,40.300558,-124.251236
CA,Redway,40.110081,-123.844194
CA,Rio Dell,40.495147,-124.104386
CA,Salyer,40.89095,-123.547833
CA,Samoa,40.803712,-124.193571
CA,Scotia,40.454665,-124.039074
CA,Smith River,41.936218,-124.166115
CA,Somes Bar,41.43304,-123.475928
CA,Redcrest,40.406458,-123.94205
CA,Westhaven,41.087949,-124.101253
CA,Willow Creek,40.938894,-123.631062
CA,Auburn,38.928311,-121.084347
CA,Bryte,38.592424,-121.526377
CA,Brooks,38.739277,-122.133391
CA,Capay,38.696964,-122.100993
CA,Carmichael,38.628393,-121.328683
CA,Citrus Heights,38.694571,-121.269211
CA,Clarksburg,38.395963,-121.556853
CA,Cool,38.903633,-120.972963
CA,Courtland,38.305756,-121.554297
CA,Davis,38.554817,-121.748495
CA,El Macero,38.542151,-121.676722
CA,Diamond Springs,38.66302,-120.836071
CA,Liberty Farms,38.458691,-121.815825
CA,Elk Grove,38.412744,-121.359914
CA,Elverta,38.716424,-121.431038
CA,Esparto,38.694191,-122.021391
CA,Fair Oaks,38.655408,-121.261065
CA,Fiddletown,38.53141,-120.715926
CA,El Dorado Hills,38.687885,-121.140927
CA,Foresthill,39.00229,-120.861127
CA,Galt,38.269846,-121.29383
CA,Garden Valley,38.866495,-120.856672
CA,Georgetown,38.919892,-120.793388
CA,Greenwood,38.936234,-120.916589
CA,Grizzly Flats,38.628665,-120.542508
CA,Guinda,38.816568,-122.189659
CA,Herald,38.31282,-121.158898
CA,Ione,38.351882,-120.943265
CA,Isleton,38.155392,-121.604858
CA,Jackson,38.357514,-120.754877
CA,Kelsey,38.797636,-120.824056
CA,Knights Landing,38.822032,-121.720003
CA,Lincoln,38.904035,-121.295541
CA,Loomis,38.80711,-121.169826
CA,Lotus,38.801712,-120.928864
CA,Mcclellan Afb,38.655416,-121.40311
CA,Madison,38.680164,-121.972129
CA,Mather Afb,38.549224,-121.282394
CA,Newcastle,38.872467,-121.142616
CA,Trowbridge,38.882726,-121.553043
CA,North Highlands,38.68855,-121.374913
CA,Roseville,38.734612,-121.233968
CA,Orangevale,38.682384,-121.222902
CA,Penryn,38.856654,-121.179149
CA,Pilot Hill,38.826312,-121.029765
CA,Pine Grove,38.396783,-120.643713
CA,Pioneer,38.460271,-120.531815
CA,Placerville,38.719479,-120.804564
CA,Pleasant Grove,38.787773,-121.507967
CA,Plymouth,38.48811,-120.870258
CA,Gold River,38.601897,-121.289434
CA,Rescue,38.719353,-120.994526
CA,Rio Linda,38.689311,-121.445152
CA,Rio Oso,38.960998,-121.505305
CA,Rocklin,38.791898,-121.243406
CA,Rumsey,38.8762,-122.253738
CA,Sheridan,38.99153,-121.362062
CA,Cameron Park,38.665616,-120.975925
CA,Rancho Murieta,38.507475,-121.094089
CA,Somerset,38.607414,-120.666306
CA,Sutter Creek,38.418569,-120.785454
CA,Vacaville,38.341915,-121.962285
CA,Volcano,38.477319,-120.617761
CA,Walnut Grove,38.236362,-121.524849
CA,West Sacramento,38.567979,-121.539671
CA,Wheatland,39.019197,-121.422126
CA,Wilton,38.412069,-121.225656
CA,Winters,38.529462,-121.974544
CA,Woodland,38.674294,-121.77932
CA,Zamora,38.799896,-121.90654
CA,Alta,39.228032,-120.773165
CA,Applegate,38.995487,-120.990511
CA,Camino,38.744938,-120.671979
CA,Iowa Hill,39.076936,-120.960163
CA,Dutch Flat,39.197788,-120.826224
CA,Emigrant Gap,39.286907,-120.662902
CA,Gold Run,39.175102,-120.856909
CA,Kyburz,38.780036,-120.25529
CA,Echo Lake,38.810254,-120.070498
CA,Meadow Vista,39.003101,-121.029155
CA,Norden,39.319566,-120.400876
CA,Pacific House,38.745581,-120.585114
CA,Soda Springs,39.338467,-120.465493
CA,Twin Bridges,38.808615,-120.128851
CA,Rancho Cordova,38.604313,-121.204019
CA,Sacramento,38.579792,-121.489404
CA,Marysville,39.141653,-121.522467
CA,Alleghany,39.512698,-120.727176
CA,Arbuckle,39.013787,-122.027405
CA,Bangor,39.424862,-121.350499
CA,Belden,39.921746,-121.325924
CA,Berry Creek,39.638394,-121.385467
CA,Biggs,39.414918,-121.695873
CA,Browns Valley,39.284428,-121.346482
CA,Brownsville,39.452534,-121.261179
CA,Butte City,39.456348,-121.978046
CA,Camptonville,39.450784,-121.023066
CA,Canyondam,40.207958,-121.156324
CA,Cohasset,39.756466,-121.851806
CA,Chico,39.729523,-121.81555
CA,Colusa,39.21311,-122.011563
CA,Crescent Mills,40.081915,-120.881993
CA,Dobbins,39.371469,-121.234386
CA,Downieville,39.570265,-120.677767
CA,Dunnigan,38.893671,-121.996577
CA,Durham,39.641599,-121.791983
CA,Elk Creek,39.598914,-122.557244
CA,Forbestown,39.541712,-121.213443
CA,Butte Meadows,40.129931,-121.500205
CA,Glenn,39.606871,-122.038443
CA,Goodyears Bar,39.572891,-120.820698
CA,Grass Valley,39.207617,-121.037401
CA,Penn Valley,39.218778,-121.193519
CA,Greenville,40.142404,-120.927299
CA,Gridley,39.358855,-121.689777
CA,Live Oak,39.266904,-121.66393
CA,Magalia,39.831728,-121.597455
CA,Maxwell,39.292494,-122.195161
CA,Meadow Valley,39.918488,-121.05629
CA,Meridian,39.116812,-121.88138
CA,Nevada City,39.275395,-121.019634
CA,North San Juan,39.354037,-121.13498
CA,Olivehurst,39.089483,-121.550059
CA,Oregon House,39.314388,-121.209229
CA,Orland,39.744578,-122.157885
CA,Pulga,39.532967,-121.578396
CA,Oroville,39.491448,-121.502029
CA,Palermo,39.436148,-121.545389
CA,Paradise,39.759804,-121.603097
CA,Princeton,39.428313,-122.030181
CA,Quincy,39.940504,-120.928493
CA,Rackerby,39.4059,-121.336192
CA,Rough And Ready,39.228585,-121.150856
CA,Smartville,39.204305,-121.266716
CA,Stonyford,39.333652,-122.517811
CA,La Porte,39.604136,-121.074566
CA,Sutter,39.168114,-121.756527
CA,Taylorsville,40.064911,-120.801797
CA,Twain,40.002769,-121.150729
CA,Williams,39.148855,-122.162375
CA,Willows,39.523751,-122.199204
CA,Yuba City,39.128619,-121.621599
CA,Redding,40.560493,-122.411627
CA,Adin,41.21751,-120.943193
CA,Anderson,40.457432,-122.328218
CA,Bella Vista,40.740945,-122.07245
CA,Big Bar,40.74796,-123.229006
CA,Burney,40.894927,-121.655036
CA,Callahan,41.383257,-122.764046
CA,Canby,41.466358,-120.921769
CA,Cassel,40.907832,-121.524497
CA,Shasta Lake,40.680262,-122.365395
CA,Chester,40.297457,-121.227338
CA,Corning,39.929566,-122.195991
CA,Cottonwood,40.369072,-122.337463
CA,Douglas City,40.634151,-122.923867
CA,Dunsmuir,41.212439,-122.273397
CA,Sawyers Bar,41.468303,-122.914189
CA,Fall River Mills,41.03931,-121.460562
CA,Forks Of Salmon,41.256978,-123.09781
CA,Fort Jones,41.617027,-122.883207
CA,French Gulch,40.703517,-122.622868
CA,Gazelle,41.510485,-122.537122
CA,Gerber,40.042997,-122.164937
CA,Grenada,41.612512,-122.525829
CA,Happy Camp,41.801802,-123.388045
CA,Hat Creek,40.767673,-121.463687
CA,Hayfork,40.550431,-123.163416
CA,Hornbrook,41.907738,-122.526528
CA,Horse Creek,41.833732,-123.013919
CA,Igo,40.431795,-122.654023
CA,Helena,40.768187,-123.062671
CA,Klamath River,41.863699,-122.819693
CA,Lakehead,40.958775,-122.359281
CA,Lewiston,40.745986,-122.842591
CA,Los Molinos,40.049735,-122.099175
CA,Mcarthur,41.111407,-121.214896
CA,Mccloud,41.252108,-122.13562
CA,Macdoel,41.883028,-121.944472
CA,Manton,40.433125,-121.836521
CA,Millville,40.565316,-122.111088
CA,Mineral,40.328826,-121.524807
CA,Montague,41.724294,-122.463799
CA,Montgomery Creek,40.912378,-121.923313
CA,Mount Shasta,41.317435,-122.324017
CA,Oak Run,40.68631,-122.040932
CA,Old Station,40.62557,-121.458476
CA,Palo Cedro,40.576661,-122.239805
CA,Paynes Creek,40.351415,-121.764952
CA,Wildwood,40.316528,-122.918013
CA,Red Bluff,40.179535,-122.238281
CA,Scott Bar,41.77364,-122.988183
CA,Seiad Valley,41.886589,-123.243762
CA,Shasta,40.610896,-122.49685
CA,Shingletown,40.504959,-121.885668
CA,Trinity Center,41.061548,-122.723919
CA,Weaverville,40.731701,-122.935303
CA,Edgewood,41.439466,-122.384803
CA,Whitmore,40.65255,-121.877076
CA,Yreka,41.720558,-122.637604
CA,Alturas,41.476742,-120.545584
CA,Cromberg,39.784745,-120.627397
CA,Cedarville,41.475871,-120.151551
CA,Chilcoot,39.805683,-120.175212
CA,Clio,39.74326,-120.560458
CA,Coleville,38.502903,-119.482784
CA,Davis Creek,41.862555,-120.323549
CA,Doyle,40.000799,-120.107693
CA,Floriston,39.445746,-120.025421
CA,Fort Bidwell,41.864441,-120.161983
CA,Herlong,40.148492,-120.171271
CA,Janesville,40.296325,-120.50982
CA,Lake City,41.668208,-120.181424
CA,Litchfield,40.362788,-120.253975
CA,Loyalton,39.662974,-120.229662
CA,Hope Valley,38.76473,-119.807275
CA,Milford,40.182763,-120.389508
CA,Portola,39.810883,-120.466858
CA,Ravendale,40.831705,-120.16001
CA,Calpine,39.651699,-120.4442
CA,Sierra City,39.559248,-120.624135
CA,Sierraville,39.594294,-120.347789
CA,Standish,40.350863,-120.406847
CA,Susanville,40.398282,-120.646442
CA,Termo,40.946667,-120.517378
CA,Topaz,38.64151,-119.512164
CA,Tulelake,41.931621,-121.434688
CA,Vinton,39.720719,-120.204994
CA,Wendel,40.346233,-120.352156
CA,Peninsula Villag,40.270359,-121.109224
CA,Carnelian Bay,39.231937,-120.075328
CA,Homewood,39.078157,-120.179035
CA,Tahoma,39.064406,-120.135747
CA,Kings Beach,39.240119,-120.023287
CA,Tahoe City,39.180618,-120.144532
CA,Tahoe Vista,39.24475,-120.052128
CA,South Lake Tahoe,38.916976,-119.986469
CA,Truckee,39.338546,-120.172942
CO,Arvada,39.794533,-105.098402
CO,Aurora,39.736788,-104.864618
CO,Broomfield,39.924513,-105.060902
CO,Westminster,39.875996,-105.102837
CO,Commerce City,39.825875,-104.911349
CO,Lafayette,39.997964,-105.096346
CO,Louisville,39.978942,-105.145557
CO,Wheat Ridge,39.774036,-105.096195
CO,Agate,39.420256,-103.984575
CO,Bennett,39.725398,-104.427284
CO,Byers,39.698454,-104.201872
CO,Castle Rock,39.39256,-104.860187
CO,Deer Trail,39.593121,-104.068003
CO,Elbert,39.096892,-104.574631
CO,Elizabeth,39.383618,-104.591961
CO,Cherry Hills Vil,39.646027,-104.990022
CO,Englewood,39.58051,-104.901115
CO,Franktown,39.372841,-104.725569
CO,Kiowa,39.323972,-104.452263
CO,Larkspur,39.201079,-104.854587
CO,Littleton,39.599426,-105.0044
CO,Greenwood Villag,39.605835,-104.957285
CO,Bow Mar,39.596854,-105.07766
CO,Highlands Ranch,39.55134,-104.963751
CO,Monument,39.100726,-104.85416
CO,Palmer Lake,39.120498,-104.914795
CO,Parker,39.505466,-104.734904
CO,Deckers,39.330109,-105.008305
CO,Strasburg,39.781359,-104.268258
CO,Watkins,39.762317,-104.583391
CO,Denver,39.749107,-104.994591
CO,Mountain View,39.772396,-105.046979
CO,Edgewater,39.746931,-105.062036
CO,Lakewood,39.744033,-105.102329
CO,Federal Heights,39.840562,-105.007985
CO,Glendale,39.682803,-104.927992
CO,Thornton,39.860998,-104.961749
CO,Northglenn,39.901222,-104.958257
CO,Boulder,40.049733,-105.21426
CO,Golden,39.730548,-105.191528
CO,Bailey,39.448233,-105.469282
CO,Black Hawk,39.801105,-105.503991
CO,Bond,39.869119,-106.676273
CO,Clark,40.726783,-106.921482
CO,Climax,39.298804,-106.258027
CO,Coalmont,40.538252,-106.532134
CO,Conifer,39.519735,-105.316873
CO,Keystone,39.574827,-106.057345
CO,Evergreen,39.637405,-105.340248
CO,Fairplay,39.225617,-105.999416
CO,Foxton,39.372056,-105.24815
CO,Granby,40.012834,-105.889916
CO,Grand Lake,40.228862,-105.860488
CO,Idaho Springs,39.740192,-105.598261
CO,Jamestown,40.10056,-105.418971
CO,Jefferson,39.300926,-105.78633
CO,Kremmling,40.063224,-106.395472
CO,Leadville,39.249742,-106.301545
CO,Mc Coy,39.913377,-106.730906
CO,Morrison,39.612452,-105.174641
CO,Nederland,39.970259,-105.481265
CO,Oak Creek,40.256733,-106.929621
CO,Parshall,40.053765,-106.225492
CO,Pine,39.46667,-105.374116
CO,Pinecliffe,39.942898,-105.354004
CO,Rollinsville,39.910757,-105.472596
CO,Toponas,40.119601,-106.908172
CO,Walden,40.709978,-106.276728
CO,Ward,40.072572,-105.508023
CO,Steamboat Spring,40.474124,-106.8457
CO,Longmont,40.177921,-105.10095
CO,Allenspark,40.226775,-105.520064
CO,Bellvue,40.626528,-105.260977
CO,Berthoud,40.299333,-105.105459
CO,Dacono,40.08361,-104.929705
CO,Drake,40.443257,-105.296925
CO,Erie,40.059746,-105.068583
CO,Estes Park,40.365761,-105.514163
CO,Fort Collins,40.581293,-105.103884
CO,Johnstown,40.335526,-104.923558
CO,Laporte,40.634683,-105.148757
CO,Virginia Dale,40.779878,-105.367745
CO,Loveland,40.384917,-105.09164
CO,Lyons,40.235715,-105.323071
CO,Milliken,40.310656,-104.876137
CO,Red Feather Lake,40.796451,-105.624455
CO,Wellington,40.725525,-105.031844
CO,Windsor,40.483663,-104.899442
CO,Lochbui,39.980553,-104.810278
CO,Ault,40.593772,-104.735629
CO,Briggsdale,40.639192,-104.28707
CO,Carr,40.866551,-104.885865
CO,Eaton,40.527272,-104.714559
CO,Evans,40.380255,-104.697095
CO,Wattenburg,40.078876,-104.865639
CO,Galeton,40.515034,-104.597254
CO,Gill,40.469586,-104.499995
CO,Garden City,40.413968,-104.704756
CO,Greeley,40.410947,-104.754113
CO,Henderson,39.898304,-104.871834
CO,Hudson,40.060555,-104.653208
CO,Keenesburg,40.095847,-104.446366
CO,Kersey,40.396305,-104.528768
CO,La Salle,40.321138,-104.726784
CO,Nunn,40.726483,-104.785012
CO,Orchard,40.363946,-104.097325
CO,Pierce,40.635911,-104.763764
CO,Platteville,40.213121,-104.802776
CO,Roggen,40.207445,-104.315747
CO,Weldona,40.368093,-103.967755
CO,Hoyt,40.205651,-104.052814
CO,Fort Morgan,40.254084,-103.803119
CO,Akron,40.180315,-103.225885
CO,Amherst,40.682386,-102.170567
CO,Atwood,40.517432,-103.039301
CO,Brush,40.260255,-103.62788
CO,Crook,40.874743,-102.847174
CO,Eckley,40.113775,-102.482776
CO,Fleming,40.637019,-102.868821
CO,Grover,40.871635,-104.234613
CO,Haxtun,40.640587,-102.605175
CO,Hillrose,40.307186,-103.541816
CO,Holyoke,40.582542,-102.282545
CO,Hale,39.733147,-102.211563
CO,Iliff,40.769174,-103.096808
CO,Julesburg,40.97083,-102.257501
CO,Lindon,39.830849,-103.314471
CO,Willard,40.511548,-103.34471
CO,New Raymer,40.685079,-103.838982
CO,Otis,40.202989,-102.939219
CO,Ovid,40.945865,-102.387396
CO,Padroni,40.954911,-103.358163
CO,Peetz,40.95195,-103.116606
CO,Sedgwick,40.910317,-102.529122
CO,Snyder,40.330655,-103.597134
CO,Sterling,40.63062,-103.221183
CO,Stoneham,40.686994,-103.638687
CO,Vernon,39.933127,-102.319343
CO,Last Chance,39.938105,-103.578033
CO,Laird,40.104917,-102.233751
CO,Yuma,40.130063,-102.707174
CO,Anton,39.686527,-103.434296
CO,Arapahoe,38.841716,-102.19401
CO,Arriba,39.30253,-103.270968
CO,Bethune,39.344771,-102.428142
CO,Burlington,39.310649,-102.258281
CO,Calhan,38.964773,-104.355274
CO,North Pole,38.921314,-104.993684
CO,Cheyenne Wells,38.819762,-102.358173
CO,Cope,39.746227,-102.988098
CO,Divide,38.957622,-105.19937
CO,Flagler,39.312654,-103.062395
CO,Florissant,38.827669,-105.226106
CO,Fountain,38.699563,-104.700469
CO,Genoa,39.338328,-103.460689
CO,Guffey,38.814584,-105.57835
CO,Hugo,39.084318,-103.498971
CO,Joes,39.672771,-102.615134
CO,Karval,38.71194,-103.500613
CO,Kirk,39.617072,-102.477554
CO,Kit Carson,38.803984,-102.819842
CO,Lake George,39.034233,-105.434654
CO,Limon,39.27126,-103.685572
CO,Manitou Springs,38.854994,-104.905839
CO,Matheson,39.132044,-103.913165
CO,Peyton,38.954097,-104.54722
CO,Ramah,39.073571,-104.124733
CO,Rush,38.764248,-104.024065
CO,Seibert,39.318329,-102.882184
CO,Simla,39.146457,-104.086236
CO,Stratton,39.308733,-102.597928
CO,United States Ai,38.990448,-104.860139
CO,Vona,39.323564,-102.739287
CO,Woodland Park,38.996929,-105.062292
CO,Yoder,38.775252,-104.218353
CO,Colorado Springs,38.838832,-104.814466
CO,Fort Carson,38.741967,-104.782218
CO,Cheyenne Mtn Afb,38.784241,-104.719052
CO,Pueblo,38.287876,-104.584828
CO,Pueblo West,38.319975,-104.743264
CO,Aguilar,37.393304,-104.676926
CO,Arlington,38.40677,-103.369741
CO,North Avondale,38.211603,-104.359686
CO,Beulah,38.083712,-104.97245
CO,Boone,38.264614,-104.25851
CO,Brandon,38.485133,-102.781906
CO,Branson,37.051775,-103.874115
CO,Bristol,38.133184,-102.342642
CO,Campo,37.119547,-102.546423
CO,Chivington,38.444141,-102.50536
CO,Fowler,38.123071,-104.029908
CO,Farisita,37.763753,-105.237397
CO,Granada,38.054485,-102.32712
CO,Hartman,38.145291,-102.186609
CO,Caddoa,38.107347,-102.933145
CO,Haswell,38.447431,-103.150543
CO,Holly,38.0205,-102.141466
CO,Villegreen,37.331189,-103.358348
CO,Timpas,37.991552,-103.549068
CO,Lamar,38.084136,-102.619195
CO,Deora,38.065514,-103.208492
CO,Cuchara,37.498292,-105.012994
CO,Mc Clave,38.150484,-102.816934
CO,Manzanola,38.110861,-103.876602
CO,Delhi,37.478533,-104.13074
CO,Olney Springs,38.201877,-103.941033
CO,Ordway,38.209546,-103.800277
CO,Utleyville,37.355885,-102.893106
CO,Rocky Ford,38.049016,-103.725143
CO,Rye,37.937145,-104.886257
CO,Towner,38.462172,-102.295367
CO,Springfield,37.406727,-102.617322
CO,Sugar City,38.244368,-103.655557
CO,81080,38.438391,-102.108268
CO,Trinchera,37.075662,-104.118354
CO,Jansen,37.175475,-104.500715
CO,Lycan,37.57476,-102.320128
CO,Vilas,37.373043,-102.44374
CO,Farista,37.638159,-104.804301
CO,Walsh,37.352057,-102.253716
CO,Weston,37.170211,-104.824749
CO,Wiley,38.158978,-102.714734
CO,Alamosa,37.470274,-105.878602
CO,Antonito,37.085473,-106.037946
CO,Arboles,37.101633,-107.390749
CO,Bayfield,37.260328,-107.613728
CO,Blanca,37.431702,-105.517784
CO,Center,37.734295,-106.090628
CO,Creede,37.816367,-106.927679
CO,La Garita,37.671346,-106.350502
CO,Fort Garland,37.426978,-105.404879
CO,Hooper,37.723203,-105.871193
CO,Ignacio,37.126412,-107.639465
CO,La Jara,37.290726,-106.005427
CO,Moffat,38.045195,-105.841051
CO,Monte Vista,37.573095,-106.140833
CO,Mosca,37.635796,-105.806866
CO,Pagosa Springs,37.252345,-107.038497
CO,Saguache,38.09775,-106.187592
CO,San Acacio,37.201347,-105.439949
CO,Sanford,37.208724,-105.928588
CO,Mesita,37.05057,-105.575625
CO,San Pablo,37.134872,-105.346196
CO,South Fork,37.67248,-106.612451
CO,Villa Grove,38.2952,-106.110183
CO,Salida,38.525909,-105.997818
CO,Almont,38.64997,-106.627099
CO,Buena Vista,38.838003,-106.147121
CO,Canon City,38.445074,-105.217829
CO,Cimarron,38.387633,-107.482366
CO,Crested Butte,38.869081,-106.961899
CO,Florence,38.385016,-105.123233
CO,Granite,39.095294,-106.311417
CO,Gunnison,38.551056,-106.931013
CO,Howard,38.388519,-105.747124
CO,Lake City,37.986769,-107.302037
CO,Nathrop,38.710343,-106.116576
CO,Parlin,38.508762,-106.677995
CO,Penrose,38.433622,-105.011325
CO,Pitkin,38.608542,-106.516774
CO,Powderhorn,38.282165,-107.108449
CO,81250,38.395556,-105.531825
CO,Twin Lakes,39.090231,-106.435079
CO,Westcliffe,38.123023,-105.433154
CO,Wetmore,38.189857,-105.106441
CO,Durango,37.287388,-107.861684
CO,Cahone,37.69163,-108.579442
CO,Cortez,37.354949,-108.583726
CO,Dolores,37.466571,-108.471748
CO,Dove Creek,37.763199,-108.918147
CO,Egnar,37.934448,-108.929889
CO,Hesperus,37.165368,-108.121917
CO,Lewis,37.47101,-108.61891
CO,Mancos,37.347133,-108.298242
CO,Pleasant View,37.588763,-108.809487
CO,Towaoc,37.208408,-108.719993
CO,Yellow Jacket,37.499526,-108.785167
CO,Montrose,38.46783,-107.875182
CO,Austin,38.797544,-107.97384
CO,Bedrock,38.384352,-108.953224
CO,Cedaredge,38.911878,-107.926786
CO,Crawford,38.69408,-107.614864
CO,Delta,38.734891,-108.060421
CO,Eckert,38.844982,-107.962452
CO,Hotchkiss,38.812417,-107.747173
CO,Naturita,38.222559,-108.572836
CO,Norwood,38.110406,-108.284472
CO,Nucla,38.268219,-108.547644
CO,Olathe,38.597575,-107.992118
CO,Ophir,37.856197,-107.851961
CO,Ouray,38.02576,-107.67261
CO,Paonia,38.864978,-107.598483
CO,Placerville,38.008759,-108.024775
CO,Redvale,38.186452,-108.389536
CO,Ridgway,38.138074,-107.753341
CO,Silverton,37.808995,-107.666686
CO,Somerset,38.946801,-107.378145
CO,Telluride,37.940028,-107.821371
CO,Grand Junction,39.078326,-108.545692
CO,Fruitvale,39.083136,-108.489094
CO,Clifton,39.0805,-108.449628
CO,Fruita,39.163656,-108.721757
CO,Gateway,38.915136,-108.791344
CO,Loma,39.227896,-108.814902
CO,Mack,39.255367,-108.929597
CO,Palisade,39.103178,-108.367977
CO,Whitewater,38.974422,-108.399042
CO,Glenwood Springs,39.529607,-107.325188
CO,Dinosaur,40.256609,-108.965184
CO,Aspen,39.195139,-106.823593
CO,Basalt,39.353466,-106.998752
CO,Marble,39.385431,-107.171012
CO,Collbran,39.245267,-107.924945
CO,Craig,40.522351,-107.561458
CO,De Beque,39.311764,-108.230405
CO,Eagle,39.634138,-106.75884
CO,Elk Springs,40.414588,-108.419729
CO,Battlement Mesa,39.440729,-108.038038
CO,Gypsum,39.661848,-106.967083
CO,Hamilton,40.32504,-107.584089
CO,Hayden,40.494487,-107.257055
CO,Maybell,40.650649,-108.272264
CO,Meeker,40.038726,-107.892498
CO,Meredith,39.335348,-106.67823
CO,Mesa,39.161161,-108.104401
CO,New Castle,39.570922,-107.542758
CO,Rangely,40.082844,-108.799148
CO,Rifle,39.549073,-107.789804
CO,Silt,39.541464,-107.657411
CO,Slater,40.947985,-107.497178
CO,Snowmass,39.250059,-106.950839
CO,Vail,39.623793,-106.463454
CT,Avon,41.790498,-72.865323
CT,Bloomfield,41.831647,-72.72493
CT,Bristol,41.682293,-72.930193
CT,Burlington,41.757296,-72.944386
CT,Windsorville,41.911405,-72.543667
CT,Canaan,42.024821,-73.323177
CT,Canton,41.838401,-72.898731
CT,Canton Center,41.871586,-72.905847
CT,Colebrook,42.028217,-73.104069
CT,Collinsville,41.851319,-72.92827
CT,East Berlin,41.61277,-72.719007
CT,East Canaan,42.011686,-73.278462
CT,East Granby,41.932215,-72.745889
CT,East Hartland,42.001617,-72.924213
CT,Ellington,41.911417,-72.462599
CT,Falls Village,41.95784,-73.351659
CT,Farmington,41.72839,-72.841476
CT,Glastonbury,41.707329,-72.572705
CT,Granby,41.960227,-72.799377
CT,Berlin,41.620826,-72.770482
CT,Lakeville,41.951631,-73.43766
CT,Manchester,41.777732,-72.52444
CT,Bolton,41.768888,-72.43958
CT,New Britain,41.666683,-72.772208
CT,New Hartford,41.846797,-73.010369
CT,Norfolk,41.985386,-73.199197
CT,North Canton,41.923516,-72.90414
CT,North Granby,42.021925,-72.840938
CT,Plainville,41.672653,-72.864373
CT,Pleasant Valley,41.924873,-72.982675
CT,Riverton,41.961395,-73.025469
CT,Vernon Rockville,41.850073,-72.464855
CT,Rocky Hill,41.658295,-72.663197
CT,Salisbury,42.001452,-73.421492
CT,Sharon,41.871446,-73.457758
CT,Simsbury,41.873712,-72.821267
CT,Somers,41.997813,-72.458266
CT,South Glastonbur,41.660682,-72.554308
CT,South Windsor,41.834081,-72.557585
CT,Stafford Springs,41.966127,-72.289857
CT,Suffield,41.990029,-72.641997
CT,Tariffville,41.907715,-72.767786
CT,Enfield,41.989016,-72.565218
CT,Tolland,41.869647,-72.371789
CT,Unionville,41.747711,-72.887406
CT,East Windsor,41.9099,-72.602945
CT,Weatogue,41.837152,-72.825254
CT,West Granby,41.965509,-72.855496
CT,West Simsbury,41.871797,-72.857749
CT,West Suffield,42.011464,-72.736232
CT,Windsor,41.856122,-72.663893
CT,Windsor Locks,41.926078,-72.645762
CT,Winsted,41.925214,-73.066341
CT,Hartford,41.767196,-72.675966
CT,W Hartford,41.755553,-72.75322
CT,East Hartford,41.780291,-72.618014
CT,Wethersfield,41.701332,-72.676308
CT,Maple Hill,41.686402,-72.729747
CT,Willimantic,41.714918,-72.213396
CT,Amston,41.628969,-72.364601
CT,Andover,41.733215,-72.376719
CT,Brooklyn,41.780747,-71.954129
CT,Chaplin,41.802584,-72.137197
CT,Columbia,41.697274,-72.30717
CT,Coventry,41.782195,-72.333249
CT,Danielson,41.798246,-71.880703
CT,Dayville,41.854045,-71.868342
CT,Eastford,41.877104,-72.089451
CT,East Killingly,41.848756,-71.798534
CT,Hampton,41.761668,-72.067979
CT,Hebron,41.684161,-72.398553
CT,Lebanon,41.632988,-72.244035
CT,Mansfield Center,41.769814,-72.201112
CT,North Franklin,41.616141,-72.142544
CT,North Grosvenord,41.987878,-71.902734
CT,North Windham,41.745144,-72.160106
CT,Pomfret Center,41.869683,-71.98201
CT,Putnam,41.91853,-71.896804
CT,Quinebaug,42.021747,-71.939137
CT,Scotland,41.689849,-72.078263
CT,South Windham,41.667724,-72.168112
CT,Storrs Mansfield,41.805364,-72.257172
CT,Thompson,41.980285,-71.837587
CT,Warrenville,41.86434,-72.15873
CT,West Willington,41.873996,-72.272774
CT,Windham,41.702652,-72.15261
CT,Woodstock,41.960218,-72.004027
CT,Woodstock Valley,41.915296,-72.09366
CT,New London,41.350718,-72.106245
CT,Baltic,41.62629,-72.077499
CT,Canterbury,41.684403,-72.000985
CT,East Lyme,41.366806,-72.232987
CT,Bozrah,41.546515,-72.171078
CT,Gales Ferry,41.42852,-72.06719
CT,Gilman,41.58117,-72.126623
CT,Ledyard,41.44014,-71.995626
